Song;Artist;Featuring;time_signature;energy;liveness;tempo;speechiness;acousticness;danceability;instrumentalness;key;loudness;valence;location;longitude;latitude
Word Crimes;Weird Al Yankovic;;4;0.684046;0.051655;122.0;0.059189;0.019962;0.91503;0.0;7.0;-5.5;0.936071;Lynwood, CA;-118.202954;33.924538
Tonight Is The Night;Outasight;;4;0.786753;0.190816;119.972;0.052481;0.042018;0.632255;0.0;7.0;-3.907;0.563579;Yonkers, NY;-73.866926;40.946107
Sugar;Maroon 5;;4;0.748826;0.084185;120.083;0.032684;0.068019;0.745122;0.0;1.0;-7.047;0.891446;Los Angeles, CA;-118.248405;33.973951
Please Remember Me;Danielle Bradbery;;4;0.575102;0.09478;76.042;0.025362;0.01174;0.504329;0.004146;8.0;-5.237;0.259257;Cypress, TX;-95.434241;29.83399
Human Nature;Glee Cast;;5;0.406364;0.143612;123.177;0.068985;0.560225;0.498915;0.0;0.0;-8.89;0.386385;USA;-97.0;38.0
Go Get It;T.I.;;4;0.64725;0.394225;151.997;0.148746;0.002114;0.61136;0.0;0.0;-6.229;0.504436;Atlanta, GA;-84.47405;33.844371
Live For The Night;Krewella;;4;0.91311;0.167614;128.147;0.12822;0.020285;0.504925;1e-06;6.0;-1.22;0.69015;Chicago, IL;-87.650052;41.850033
My Story;R. Kelly;Featuring 2 Chainz;4;0.434574;0.510937;132.411;0.358923;0.025003;0.707082;0.0;6.0;-13.939;0.737342;Chicago, IL;-87.650052;41.850033
I Do;Young Jeezy;Featuring Jay-Z &amp,; Andre 3000;4;0.658311;0.054165;72.705;0.422248;0.161552;0.567333;0.0;10.0;-13.641;0.72044;NA;0;0
Young And Beautiful;Lana Del Rey;;4;0.439725;0.113954;115.514;0.033566;0.182152;0.34986;1.1e-05;11.0;-8.56;0.133387;Lake Placid, NY, US;-73.9827;44.2821
Begin Again;Taylor Swift;;4;0.339499;0.108039;78.961;0.028209;0.254236;0.523167;6e-06;7.0;-16.403;0.329094;Reading, PA;-75.940153;40.357242
A Light That Never Comes;Linkin Park X Steve Aoki;;4;0.91268;0.217694;115.137;0.081312;0.002808;0.660166;0.014684;5.0;-6.51;0.501887;NA;0;0
Die In Your Arms;Justin Bieber;;4;0.875832;0.20539;171.746;0.112765;0.032032;0.567432;3e-06;7.0;-5.171;0.724791;Stratford, Canada;-80.983333;43.366667
Automatic;Miranda Lambert;;4;0.702645;0.148065;95.978;0.025309;0.041706;0.581604;8e-06;10.0;-6.694;0.432707;Lindale, TX;-95.400598;32.506185
Stoner;Young Thug;;4;0.453423;0.090282;67.994;0;0.204625;0.862453;0.000125;3.0;-7.27;0.466556;atlanta, ga;-84.47405;33.844371
Eyes Open;Taylor Swift;;4;0.390668;0.150893;139.822;0.03942;0.037615;0.539034;0.000167;7.0;-17.815;0.32195;Reading, PA;-75.940153;40.357242
Me And My Broken Heart;Rixton;;4;0.768794;0.176724;174.109;0.04403;0.004562;0.54582;0.0;5.0;-4.803;0.500756;Manchester, UK;-2.216667;53.5
Let Me Love You (Until You Learn To Love Yourself);Ne-Yo;;4;0.860827;0.36078;126.92;0.093484;0.002192;0.589321;0.0;5.0;-4.697;0.215803;Las Vegas, Nevada;-115.206969;36.301068
Play The Guitar;B.o.B;Featuring Andre 3000;5;0.903661;0.134869;135.001;0.303198;0.008326;0.571186;0.0;7.0;-4.266;0.381625;Decatur, GA;-84.291723;33.772554
Southern Girl;Tim McGraw;;4;0.620024;0.084954;110.026;0.031653;0.06519;0.724386;1e-06;7.0;-11.106;0.802689;Delhi, LA;-91.49317;32.45764
Night Changes;One Direction;;4;0.520009;0.115136;120.001;0.035291;0.858885;0.671553;0.0;8.0;-7.747;0.395633;London, England, GB;-0.12714;51.5063
Beat Of The Music;Brett Eldredge;;4;0.749782;0.134434;109.995;0.026924;0.007228;0.630148;4e-06;9.0;-6.264;0.773548;Paris, IL;-87.740488;39.638496
Acapella;Karmin;;4;0.628599;0.267873;169.959;0.31904;0.133975;0.663033;0.0;2.0;-6.386;0.267487;Boston, MA;-71.026964;42.370567
Rewind;Rascal Flatts;;4;0.443661;0.108428;81.964;0.047357;0.506541;0.57732;0.831389;8.0;-15.585;0.810423;Columbus, OH;-83.013402;40.100924
Started From The Bottom;Drake;;4;0.511694;0.159764;86.35;0.187572;0.037796;0.792948;0.0;8.0;-7.871;0.539036;Toronto, Canada;-79.416667;43.666667
Jump Right In;Zac Brown Band;;4;0.816473;0.141227;104.034;0.054862;0.072122;0.690967;0.0;1.0;-5.103;0.653609;Dahlonega, Georgia;-84.024387;34.541371
Ready Or Not;Bridgit Mendler;;4;0.789807;0.457266;118.967;0.075964;0.026741;0.715197;0.000359;7.0;-5.704;0.724447;san francisco, ca;-122.727802;37.784827
King Wizard;Kid Cudi;;4;0.618801;0.106144;14
Pom Poms;Jonas Brothers;;4;0.98137;0.28904;147.971;0.106494;0.069991;0.668538;0.0;1.0;-2.213;0.909625;Hollywood, CA;-118.326743;34.098343
Tuesday;I LOVE MAKONNEN;Featuring Drake;4;0.3998;0.271131;140.1;0.36648;0.200992;0.757911;8.6e-05;0.0;-15.274;0.547418;NA;0;0
Talladega;Eric Church;;4;0.66874;0.086699;143.996;0.029853;0.06014;0.583923;0.06824;1.0;-8.304;0.55644;Granite Falls, NC;-81.43065;35.79652
Wonderland;Taylor Swift;;4;0.69182;0.176613;184.014;0.054915;0.049306;0.421844;2.6e-05;3.0;-5.447;0.189219;Reading, PA;-75.940153;40.357242
Home;Dierks Bentley;;4;0.713443;0.109033;118.048;0.041957;0.433832;0.607506;0.038996;11.0;-7.198;0.45103;Tempe, AZ;-111.931298;33.401395
I Hold On;Dierks Bentley;;4;0.676149;0.100621;117.954;0.04401;0.073944;0.614217;0.00013;0.0;-7.135;0.224886;Tempe, AZ;-111.931298;33.401395
Pompeii;Bastille;;4;0.457865;0.500492;130.092;0.040763;0.084866;0.668888;8e-06;9.0;-17.646;0.664238;South London, UK;-0.1278328;51.5072648
Sirens;Pearl Jam;;4;0.618234;0.079371;78.499;0.025456;0.024303;0.491109;1e-06;3.0;-11.928;0.329973;Seattle, WA;-122.332071;47.60621
Give It 2 U;Robin Thicke;Featuring Kendrick Lamar;4;0.566646;0.133232;127.061;0.071887;0.092467;0.686003;0.0;2.0;-12.303;0.674347;Los Angeles, CA;-118.248405;33.973951
Neon Light;Blake Shelton;;4;0.779817;0.063511;154.056;0.047961;0.018875;0.665802;1e-06;2.0;-5.847;0.917663;Nashville, TN;-86.778098;36.165688
Stay;Rihanna;Featuring Mikky Ekko;4;0.195439;0.155551;111.892;0.03036;0.947981;0.629303;7.2e-05;9.0;-16.8;0.114113;Saint Michael, Barbados;-59.5333;13.1667
Levels;Avicii;;4;0.798981;0.406942;130.18;0.03727;0.031159;0.62511;0.798323;1.0;-7.317;0.347739;Stockholm, Stockholm, SE;18.0624;59.3322
Compass;Lady Antebellum;;4;0.758181;0.110331;99.96;0.025158;0.107932;0.557275;8e-06;0.0;-4.709;0.532481;Nashville, Tennessee;-86.778098;36.165688
I Like It Like That;Hot Chelle Rae;Featuring New Boyz;4;0.77054;0.251954;101.022;0.056153;0.041588;0.744921;0.0;1.0;-5.795;0.674766;Nashville, TN, US;-86.7784;36.1678
Gone;Kanye West;Featuring Camron &amp,; Consequence;4;0.667521;0.070957;92.715;0.250023;0.016479;0.853594;0.0;1.0;-6.139;0.341376;Chicago, IL;-87.658544;41.902042
Made Me;Snootie Wild;Featuring K Camp;4;0.538434;0.089845;146.104;0.102155;0.148475;0.860924;0.003176;1.0;-9.181;0.343657;Memphis, TN;-89.990415;35.169255
The Worst;Jhene Aiko;;4;0.431059;0.157293;94.01;0.061798;0.252689;0.514946;2e-06;1.0;-8.726;0.115799;Los Angeles, CA;-118.248405;33.973951
Seen It All;Jeezy;Featuring Jay Z;4;0.848684;0.338059;106.054;0.139606;0.152234;0.71465;0.0;7.0;-4.973;0.530055;Atlanta, GA;-84.47405;33.844371
Crash And Burn;Thomas Rhett;;4;0.847525;0.114074;130.016;0.031347;0.102329;0.690933;1e-06;5.0;-3.821;0.801959;Valdosta, GA;-83.332068;30.753904
El Cerrito Place;Kenny Chesney;;4;0.52041;0.241126;81.767;0;0.946845;0.676194;0.000673;3.0;-15.288;0.70725;Corryton, Tennessee;-83.78241;36.15369
1994;Jason Aldean;;4;0.774296;0.10936;159.918;0.038246;0.179861;0.594784;1e-06;11.0;-6.692;0.822297;Macon, GA;-83.617554;32.804382
Hard To Love;Lee Brice;;4;0.667871;0.177875;102.965;0.043643;0.209241;0.680201;0.0;9.0;-7.123;0.709797;Sumter, SC;-80.354238;33.913678
Crown;Jay Z;;4;0.450373;0.400652;119.748;0.04849;0.018442;0.538568;0.03896;4.0;-9.335;0.077427;Brooklyn, NY;-73.989319;40.694481
Turn The Page;The Swon Brothers;;4;0.750633;0.752237;80.098;0.038133;0.011438;0.397846;1e-06;4.0;-4.896;0.327656;Muskogee, OK;-95.50025;35.70582
On Top Of The World;Imagine Dragons;;4;0.418094;0.349315;104.014;0.177131;0.282445;0.686453;0.0;11.0;-15.221;0.428087;Las Vegas, NV, US;-115.14;36.1719
Nobody Love;Tori Kelly;;4;0.719227;0.09471;99.948;0.034684;0.00649;0.752552;0.001152;1.0;-5.125;0.545323;Wildomar, CA;-117.28004;33.59891
What Makes You Beautiful;One Direction;;4;0.81403;0.079196;124.991;0.07244;0.005355;0.70086;0.0;4.0;-1.985;0.838512;London, England, GB;-0.12714;51.5063
So Many Girls;DJ Drama;Featuring Wale\ Tyga &amp,; Roscoe Dash;4;0.852615;0.120597;145.017;0.097525;0.170617;0.603431;1e-06;6.0;-3.209;0.564534;atlanta ga;-84.47405;33.844371
Reality;Kenny Chesney;;4;0.562232;0.087952;92.491;0.062777;0.011089;0.318125;0.002356;0.0;-14.861;0.354064;Corryton, Tennessee;-83.78241;36.15369
Homegrown;Zac Brown Band;;4;0.840216;0.093895;105.022;0.030986;0.027512;0.720327;9.8e-05;6.0;-2.246;0.948809;Dahlonega, Georgia;-84.024387;34.541371
Lonely Tonight;Blake Shelton;Featuring Ashley Monroe;4;0.747156;0.098283;158.064;0.035767;0.058098;0.41008;0.0;5.0;-4.964;0.371321;Nashville, TN;-86.778098;36.165688
We Run The Night;Havana Brown;Featuring Pitbull;4;0.621621;0.342341;127.035;0.27109;0.008321;0.680224;0.0;9.0;-13.105;0.710403;Melbourne, Victoria, AU;144.967;-37.8175
Black Widow;Iggy Azalea;Featuring Rita Ora;4;0.854279;0.438137;128.01;0.136197;0.025918;0.629756;0.007187;5.0;-6.433;0.545388;Mullumbimby, Australia;153.5;-28.55
Heroes (We Could Be);Alesso;Featuring Tove Lo;4;0.753945;0.239013;125.876;0.06342;0.037286;0.520866;0.0;5.0;-4.144;0.34615;Stockholm, Sweden;18.05;59.3333333
A Woman Like You;Lee Brice;;4;0.574088;0.089361;160.009;0.030653;0.275304;0.590512;1e-06;7.0;-7.992;0.368554;Sumter,, SC;-80.354238;33.913678
Hey Girl;Billy Currington;;4;0.627488;0.092373;81.34;0.031192;0.015109;0.397016;0.0;3.0;-6.195;0.646803;Rincon,, GA ;-81.287526;32.285205
Drink On It;Blake Shelton;;4;0.728237;0.322082;187.755;0.029379;0.038704;0.482896;2e-06;7.0;-5.692;0.715438;Nashville,, TN;-86.778098;36.165688
If I Lose Myself;OneRepublic;;4;0.374293;0.498036;88.095;0.433343;0.803256;0.47232;0.0;7.0;-21.503;0.537735;Colorado Springs,, CO;-104.857828;38.861469
Get Low;Waka Flocka Flame;Featuring Nicki Minaj\ Tyga &amp,; Flo Rida;4;0.836375;0.277143;124.956;0.127759;0.129551;0.802841;0.0;8.0;-6.274;0.839953;Atlanta,, GA;-84.47405;33.844371
Party On Fifth Ave.;Mac Miller;;4;0.796812;0.099251;97.23;0.335906;0.078619;0.58454;0.0;9.0;-5.636;0.691885;Pittsburgh,, PA;-79.950968;40.47441
Long Live A$AP;A$AP Rocky;;4;0.829061;0.115018;130.006;0.321937;0.607057;0.726388;1e-06;0.0;-5.014;0.395447;Harlem,, NY;-73.9458333;40.8077778
Get Lucky;Daft Punk;Featuring Pharrell Williams;4;0.730272;0.124545;116.057;0.060452;0.096267;0.815443;1e-06;6.0;-10.588;0.883148;Paris,, Ile-de-France,, FR;2.3412;48.8569
Amnesia;5 Seconds Of Summer;;4;0.233748;0.143617;103.893;0.035306;0.01058;0.538806;0.0;2.0;-17.932;0.262502;Sydney,, Australia ;151.216667;-33.883333
When We Stand Together;Nickelback;;4;0.900104;0.040397;187.961;0.04895;0.000102;0.446456;1.9e-05;10.0;-3.541;0.883673;Hanna,, Canada;-111.916667;51.633333
Good Lovin;Ludacris;Featuring Miguel;4;0.749469;0.227245;83.998;0.21924;0.27863;0.717379;1e-06;0.0;-6.099;0.583035;atlanta,, georgia;-84.47405;33.844371
Slow Motion;Trey Songz;;4;0.408039;0.110153;94.947;0.038803;0.678638;0.73334;3.9e-05;7.0;-7.834;0.290721;Petersburg,, VA;-77.335396;37.235551
When I Was Your Man;Bruno Mars;;4;0.301757;0.091785;72.984;0.038889;0.905122;0.62334;0.0;0.0;-7.788;0.422419;Los Angeles,, CA ;-118.248405;33.973951
Pirate Flag;Kenny Chesney;;4;0.800489;0.105706;160.055;0.050144;0.069046;0.57527;9e-06;7.0;-6.271;0.576365;Corryton,, Tennessee;-83.78241;36.15369
Kiss Me Kiss Me;5 Seconds Of Summer;;4;0.949161;0.106961;150.05;0.102026;0.000286;0.46805;0.0;0.0;-4.785;0.343293;Sydney,, Australia ;151.216667;-33.883333
She Came To Give It To You;Usher;Featuring Nicki Minaj;4;0.508995;0.082606;119.978;0.09544;0.051597;0.829967;0.0;4.0;-7.291;0.779019;Atlanta,, Georgia ;-84.47405;33.844371
Feel So Close;Calvin Harris;;4;0.918573;0.081094;127.948;0.03254;0.000574;0.697757;0.719118;7.0;-3.193;0.827295;Dumfries,, Scotland,, GB;-3.6093;55.0682
Santa Tell Me;Ariana Grande;;4;0.62678;0.337568;96.012;0.056918;0.045557;0.67731;0.0;7.0;-7.361;0.532461;Boca Raton,, FL;-80.10717;26.375954
Believe Me;Lil Wayne;Featuring Drake;4;0.276629;0.118811;91.98;0.439394;0.265637;0.866835;0.0;10.0;-19.51;0.411687;New Orleans,, LA;-90.205801;29.949674
Timber;Pitbull;Featuring Ke$ha;4;0.960253;0.1567;130.457;0.137946;0.073388;0.554454;3e-06;11.0;-5.607;0.779075;Miami,, FL,, US;-80.2374;25.729
Wildfire;John Mayer;;4;0.117679;0.19537;81.319;0.043994;0.895539;0.40647;0.0;7.0;-17.292;0.357073;Bridgeport,, CT;-73.363661;41.308873
Move That Doh;Future;Featuring Pharrell\ Pusha T &amp,; Casino;4;0.575845;0.061543;131.086;0.203049;0.071758;0.856464;0.0;9.0;-6.009;0.227249;NA;0;0
Between The Raindrops;Lifehouse;Featuring Natasha Bedingfield;4;0.442521;0.075121;106.841;0.038579;0.00226;0.508677;3e-06;6.0;-14.282;0.292017;Los Angeles,, CA;-118.248405;33.973951
Midnight;Coldplay;;4;0.475056;0.094354;126.976;0.035501;0.614901;0.548091;0.808112;1.0;-12.42;0.035023;London,, England;-0.1278328;51.5072648
Wop;J. Dash;;4;0.757952;0.129963;112.023;0.035001;0.004203;0.7951;8.4e-05;7.0;-8.974;0.615149;Jacksonville,, FL;-81.6558333;30.3319444
Worst Behavior;Drake;;4;0.794261;0.210512;109.942;0.163811;0.153153;0.771733;1e-06;9.0;-6.372;0.426844;Toronto,, Canada;-79.416667;43.666667
Sweet Nothing;Calvin Harris;Featuring Florence Welch;4;0.882964;0.463423;129.758;0.118593;0.340295;0.548474;8e-06;4.0;-4.991;0.504031;Dumfries,, Scotland,, GB;-3.6093;55.0682
TKO;Justin Timberlake;;4;0.497243;0.38773;137.852;0.340363;0.00565;0.610053;1e-05;3.0;-16.814;0.240889;Memphis,, TN;-89.990415;35.169255
Downtown;Lady Antebellum;;4;0.841085;0.591545;169.971;0.042236;0.098748;0.534137;0.0;9.0;-5.003;0.963405;Nashville,, Tennessee;-86.778098;36.165688
Wiggle;Jason Derulo;Featuring Snoop Dogg;4;0.543112;0.705828;82.588;0.180859;0.214508;0.727994;0.0;9.0;-7.758;0.768622;Miami,, FL;-80.1532;25.779808
Last Christmas;Ariana Grande;;4;0.755393;0.100518;102.967;0.027705;0.110652;0.677875;0.0;7.0;-3.703;0.784943;Boca Raton,, FL;-80.10717;26.375954
Bugatti;Ace Hood;Featuring Future &amp,; Rick Ross;4;0.623309;0.124457;130.388;0.048943;0.018973;0.572174;0.0;1.0;-3.735;0.076915;Deerfield Beach,, Florida;-80.09787;26.311102
Little Bit Of Everything;Keith Urban;;4;0.857602;0.03377;160.007;0.083343;0.226631;0.626825;0.0;8.0;-6.731;0.892242;Caboolture,, Australia;152.95;-27.083333
Work;A$AP Ferg;;4;0.884575;0.353692;153.441;0.27548;0.001268;0.708487;0.093475;11.0;-5.267;0.620976;NA;0;0
Leave Your Lover;Sam Smith;;4;0.261334;0.104264;143.775;0.046003;0.950924;0.443666;2e-06;4.0;-8.799;0.424807;Bishops Stortford,, England;0.166667;51.866667
No Mediocre;T.I.;Featuring Iggy Azalea;4;0.495376;0.077788;95.466;0.043234;0.095741;0.781123;0.0;1.0;-7.449;0.207014;Atlanta,, GA;-84.47405;33.844371
Dear Future Husband;Meghan Trainor;;4;0.782212;0.317347;79.427;0.184858;0.374957;0.654982;0.0;1.0;-4.789;0.839346;Nantucket,, MA,, US;-70.0993;41.2852
CoCo;O.T. Genasis;;4;0.63121;0.313642;119.928;0.102256;0.002407;0.895824;6.6e-05;8.0;-5.904;0.190909;Long Beach,, California;-118.168135;33.803448
Billie Jean;Michael Jackson;;4;0.567089;0.045078;116.731;0.05384;0.039103;0.90546;0.004137;11.0;-7.429;0.891642;Gary,, IN;-87.319937;41.590686
Change Me;Justin Bieber;;3;0.357414;0.232337;88.941;0.054519;0.581928;0.394106;0.0;6.0;-9.193;0.100011;Stratford,, Canada;-80.983333;43.366667
Beat It;Sean Kingston;Featuring Chris Brown &amp,; Wiz Khalifa;4;0.631343;0.282019;99.057;0.03597;0.005224;0.674324;0.0;1.0;-5.454;0.516821;Kingston,, Jamaica;-76.8;18.0
Round Of Applause;Waka Flocka Flame;Featuring Drake;4;0.436913;0.101016;140.074;0.324901;0.017641;0.687235;0.0;9.0;-18.98;0.963595;Atlanta,, GA;-84.47405;33.844371
Mr. Wrong;Mary J. Blige;Featuring Drake;4;0.399361;0.121689;142.986;0.144314;0.16374;0.690417;0.000191;0.0;-13.831;0.397598;Yonkers,, New York;-73.866926;40.946107
Titanium;David Guetta;Featuring Sia;4;0.431407;0.604478;128.588;0.128209;0.028926;0.585504;0.07248;0.0;-16.309;0.334461;Paris,, France ;2.333333;48.866667
Human;Christina Perri;;4;0.250147;0.161658;72.083;0.032114;0.101478;0.506356;0.001877;8.0;-17.35;0.256922;Philadelphia,, PA;-75.11787;40.001811
Mirror;Lil Wayne;Featuring Bruno Mars;4;0.451372;0.108312;76.974;0.092229;0.853046;0.295595;0.0;5.0;-14.114;0.371466;New Orleans,, LA;-90.205801;29.949674
Troublemaker;Olly Murs;Featuring Flo Rida;4;0.864411;0.132711;105.978;0.056782;0.012946;0.763385;0.0;0.0;-3.659;0.964453;Witham,, UK;0.6433317;51.7993232
Irresistible;Fall Out Boy;;4;0.923498;0.254095;165.044;0.113905;0.067487;0.486975;0.0;2.0;-3.054;0.426723;Wilmette,, IL,, US;-87.7077;42.0756
Better Than I Know Myself;Adam Lambert;;4;0.838214;0.08575;86.044;0.192385;0.000301;0.51557;2.4e-05;7.0;-6.66;0.265554;San Diego,, CA,, US;-117.162;32.7157
Almost Is Never Enough;Ariana Grande;Featuring Nathan Sykes;3;0.322527;0.089982;121.828;0.036427;0.833598;0.416402;0.0;2.0;-7.5;0.351447;Boca Raton,, FL;-80.10717;26.375954
Trophies;Young Money;Featuring Drake;4;0.698151;0.138726;143.93;0.459698;0.179503;0.750517;0.0;1.0;-7.778;0.259688;Miami,, FL,, US;-80.2374;25.729
Adore You;Miley Cyrus;;4;0.796878;0.83715;127.897;0.106459;0.439348;0.458638;0.738663;9.0;-6.486;0.399016;Nashville,, TN;-86.778098;36.165688
LoveHate Thing;Wale;Featuring Sam Dew;4;0.672101;0.042929;100.038;0.132716;0.085033;0.755571;0.0;8.0;-6.764;0.155011;Washington DC;-77.036366;38.895112
Hookah;Tyga;Featuring Young Thug;4;0.201578;0.097854;94.965;0.523401;0.235603;0.877504;0.0;1.0;-20.2;0.290356;Compton,, CA;-118.240208;33.874815
Power Trip;J. Cole;Featuring Miguel;4;0.454966;0.480016;99.822;0.259931;0.348265;0.540886;0.000897;1.0;-12.914;0.425866;Fayetteville,, NC,, US;-78.8776;35.0545
We Found Love;Rihanna;Featuring Calvin Harris;4;0.673894;0.065583;127.955;0.052968;0.013839;0.635799;0.000363;6.0;-12.286;0.178515;Saint Michael,, Barbados;-59.5333;13.1667
Perfect Storm;Brad Paisley;;4;0.741866;0.267069;123.981;0.033829;0.418634;0.525195;7e-05;0.0;-5.548;0.384987;Glendale,, WV;-80.719815;39.962545
What Kind Of Man;Florence + The Machine;;4;0.64789;0.129309;113.047;0.042491;0.022893;0.313787;0.0;11.0;-4.556;0.158087;London,, England,, GB;-0.12714;51.5063
Hail To The King;Avenged Sevenfold;;4;0.859692;0.256997;118.011;0.035751;0.00022;0.588541;0.149161;3.0;-7.165;0.668683;Huntington Beach,, CA;-117.999227;33.660297
One Last Time;Ariana Grande;;4;0.62015;0.104809;124.995;0.032749;0.113929;0.611581;2e-06;8.0;-4.866;0.122431;Boca Raton,, FL;-80.10717;26.375954
Play Hard;David Guetta;Featuring Ne-Yo &amp,; Akon;4;0.876893;0.903921;130.053;0.151086;0.406254;0.57344;1e-06;0.0;-8.222;0.634913;Paris,, France ;2.333333;48.866667
Right Here;Justin Bieber;Featuring Drake;4;0.643827;0.360604;94.657;0.093798;0.025521;0.652603;0.0;7.0;-6.622;0.695927;Stratford,, Canada;-80.983333;43.366667
Shots;Imagine Dragons;;4;0.772924;0.309133;104.958;0.038954;0.005737;0.542107;0.005761;11.0;-6.856;0.346534;Las Vegas,, NV,, US;-115.14;36.1719
Set Fire To The Rain;Adele;;4;0.390785;0.914072;108.006;0.032866;0.110245;0.567801;0.0;2.0;-17.373;0.417383;London,, UK;-0.1278328;51.5072648
Latch;Disclosure;Featuring Sam Smith;3;0.487287;0.075103;93.398;0.215335;0.009428;0.454116;0.000505;5.0;-15.062;0.610677;Surrey,, England;-0.3756192;51.2316107
We Are Tonight;Billy Currington;;5;0.209084;0.494639;129.345;0.171034;0.58976;0.497161;0.0;11.0;-22.142;0.605934;Rincon,, GA ;-81.287526;32.285205
Beautiful;Carly Rae Jepsen;Featuring Justin Bieber;4;0.494469;0.134071;103.932;0.034409;0.401757;0.681982;0.0;8.0;-8.478;0.429455;Mission,, Canada ;-122.3;49.133333
River Bank;Brad Paisley;;4;0.878886;0.325694;117.037;0.035974;0.073825;0.639149;1e-06;7.0;-6.113;0.907818;Glendale,, WV;-80.719815;39.962545
Hungry Like The Wolf / Rio;Glee Cast;;4;0.815676;0.302497;134.001;0.045362;0.001538;0.607968;0.0;6.0;-4.809;0.536367;USA;-97.0;38.0
Only One;Kanye West;Featuring Paul McCartney;4;0.245587;0.111348;102.208;0.040857;0.938597;0.722819;0.0;0.0;-6.026;0.124268;Chicago,, IL;-87.658544;41.902042
Guts Over Fear;Eminem;Featuring Sia;4;0.863431;0.218824;140.134;0.242173;0.331342;0.613202;0.0;10.0;-4.324;0.494557;detroit,, MI;-83.060184;42.347021
Could It Be;Charlie Worsham;;4;0.744666;0.10441;90.501;0.032447;0.060665;0.641054;6e-06;4.0;-6.496;0.724708;Nashville,, TN;-86.778098;36.165688
Wake Me Up!;Avicii;;4;0.535498;0.152659;124.212;0.052874;0.013427;0.532504;9e-06;11.0;-12.963;0.802656;Stockholm,, Stockholm,, SE;18.0624;59.3322
DONE.;The Band Perry;;4;0.885821;0.057344;100.038;0.038092;0.322612;0.653521;0.0;6.0;-3.033;0.792957;nashville,, tn;-86.778098;36.165688
Drummer Boy;Justin Bieber;Featuring Busta Rhymes;4;0.849857;0.140074;122.978;0.07871;0.026718;0.746396;0.000191;8.0;-8.326;0.519323;Stratford,, Canada;-80.983333;43.366667
Tuscan Leather;Drake;;4;0.665187;0.206216;76.106;0.417522;0.119128;0.455712;0.0;6.0;-5.454;0.307374;Toronto,, Canada;-79.416667;43.666667
Loyal;Chris Brown;Featuring Lil Wayne &amp,; French Montana Or &amp,; Too $hort;4;0.537942;0.217328;98.972;0.053288;0.085617;0.838916;0.0;10.0;-5.382;0.605923;Tappahannock,, VA;-76.947547;37.916613
Come Away To The Water;Maroon 5;Featuring Rozzi Crane;4;0.487443;0.139218;169.537;0.040679;0.498505;0.26784;0.02635;11.0;-14.255;0.332719;Los Angeles,, CA;-118.248405;33.973951
No Lie;2 Chainz;Featuring Drake;4;0.585722;0.497098;107.264;0.063558;0.016348;0.663735;0.0;11.0;-8.679;0.127713;College Park,, GA;-84.449373;33.653443
Promises;Nero;;4;0.94947;0.224608;143.938;0.051673;4e-05;0.497349;0.0027;9.0;-4.141;0.339966;london,, england;-0.1278328;51.5072648
Like A Cowboy;Randy Houser;;4;0.673332;0.107517;139.968;0.032514;0.213164;0.510189;2e-06;1.0;-4.379;0.190959;Lake,, MS;-89.32868;32.3432
All That Matters;Justin Bieber;;4;0.494822;0.103548;129.67;0.051512;0.002979;0.677349;1e-06;1.0;-5.849;0.149046;Stratford,, Canada;-80.983333;43.366667
The Man;Aloe Blacc;;4;0.851267;0.129965;172.126;0.12529;0.005555;0.376632;0.0;11.0;-5.385;0.606244;Laguna Hills,, CA;-117.715535;33.595714
American Kids;Kenny Chesney;;4;0.550025;0.036254;170.022;0.100974;0.052546;0.728843;5e-06;7.0;-8.818;0.890293;Corryton,, Tennessee;-83.78241;36.15369
Anaconda;Nicki Minaj;;4;0.647542;0.2842;130.007;0.148426;0.062856;0.941151;8.5e-05;9.0;-5.469;0.764483;New York,, NY;-74.005973;40.714269
Camouflage;Brad Paisley;;4;0.964932;0.430347;113.633;0.047243;0.032483;0.559557;0.000984;4.0;-3.67;0.769111;Glendale,, WV;-80.719815;39.962545
Accidental Racist;Brad Paisley;Featuring LL Cool J;4;0.61152;0.129639;139.979;0.039213;0.540268;0.602385;0.0;7.0;-6.382;0.381651;Glendale,, WV;-80.719815;39.962545
Institutionalized;Kendrick Lamar;Featuring Bilal\ Anna Wise &amp,; Snoop Dogg;4;0.731725;0.127114;82.647;0.456232;0.123178;0.540354;0.0;1.0;-5.247;0.59001;Compton,, CA;-118.240208;33.874815
One Of Those Nights;Tim McGraw;;4;0.76086;0.134416;127.069;0.031897;0.011091;0.525997;0.0;7.0;-6.337;0.418024;Delhi,, LA;-91.49317;32.45764
Drunk On You;Luke Bryan;;4;0.88232;0.188416;143.926;0.059478;0.196269;0.558714;0.0;9.0;-4.395;0.177502;Nashville,, Tennessee ;-86.778098;36.165688
Too Close;Alex Clare;;4;0.710806;0.113905;126.01;0.041735;0.009955;0.56499;1e-06;11.0;-4.179;0.314516;Golders Green,, London,, England,, GB;-0.1969;51.5765
Take A Walk;Passion Pit;;4;0.717812;0.292423;100.943;0.055555;0.042316;0.401548;1e-06;11.0;-8.279;0.434696;Cambridge,, MA,, US;-71.106;42.3668
Collard Greens;ScHoolboy Q;Featuring Kendrick Lamar;4;0.569102;0.143429;153.989;0.062247;0.027925;0.828015;7e-06;11.0;-4.85;0.67985;Los Angeles,, CA,, US;-118.245;34.0535
Explosions;Ellie Goulding;;4;0.482522;0.295395;95.909;0.031957;0.735749;0.301299;0.0;5.0;-7.966;0.132585;Lyonshall,, England;-2.9799155;52.200524
0 To 100 / The Catch Up;Drake;;4;0.617052;0.207423;179.557;0.440321;0.750066;0.60286;0.0;11.0;-6.981;0.536849;Toronto,, Canada;-79.416667;43.666667
New Romantics;Taylor Swift;;4;0.889103;0.065804;121.956;0.071502;0.004633;0.632726;0.000458;5.0;-5.87;0.593659;Reading,, PA;-75.940153;40.357242
Little Drummer Boy;Pentatonix;;4;0.379637;0.081857;134.043;0.038367;0.403733;0.709451;1.6e-05;8.0;-10.068;0.563771;Arlington,, TX;-97.148829;32.635563
X;Chris Brown;;4;0.725831;0.106462;147.933;0.09151;0.086;0.555831;1e-06;11.0;-5.938;0.290949;Tappahannock,, VA;-76.947547;37.916613
Loud;Mac Miller;;4;0.818291;0.350969;140.023;0.039743;0.003009;0.649389;3.1e-05;1.0;-5.812;0.224712;Pittsburgh,, PA;-79.950968;40.47441
Rolling In The Deep;Adele;;4;0.141065;0.073878;104.863;0.039868;0.809447;0.728097;0.0;7.0;-16.603;0.465163;London,, UK;-0.1278328;51.5072648
Over;Blake Shelton;;4;0.610517;0.228413;155.464;0.033372;0.031228;0.39016;4e-06;1.0;-6.223;0.319066;Nashville,, TN;-86.778098;36.165688
Lay Me Down;Sam Smith;;4;0.133868;0.121161;131.591;0.045065;0.921601;0.463045;0.0;4.0;-17.68;0.442617;Bishops Stortford,, England;0.166667;51.866667
Tennis Court;Lorde;;4;0.555604;0.296755;90.015;0.062092;0.022473;0.759181;0.000165;0.0;-8.956;0.428224;Auckland,, New Zealand;174.766667;-36.866667
Somebody;Natalie La Rose;Featuring Jeremih;4;0.533823;0.068941;104.972;0.038505;0.001076;0.84518;1.2e-05;0.0;-8.722;0.733938;Amsterdam Netherlands;4.9166667;52.35
Know Yourself;Drake;;4;0.411777;0.341626;114.413;0.224585;0.196141;0.732563;0.0;11.0;-8.687;0.182181;Toronto,, Canada;-79.416667;43.666667
Right Now;Rihanna;Featuring David Guetta;4;0.759032;0.261443;130.072;0.052151;0.001167;0.534632;0.001211;6.0;-6.027;0.437621;Saint Michael,, Barbados;-59.5333;13.1667
Where Have You Been;Rihanna;;4;0.781238;0.627803;128.266;0.122887;0.001484;0.70477;0.129935;0.0;-8.494;0.411255;Saint Michael,, Barbados;-59.5333;13.1667
Tonight (Best You Ever Had);John Legend;Featuring Ludacris;4;0.820158;0.208534;89.961;0.066309;0.039372;0.695626;0.0;10.0;-4.389;0.487932;Springfield,, OH;-83.813228;39.927059
Fly / I Believe I Can Fly;Glee Cast;;4;0.85644;0.198201;121.181;0.047698;0.023966;0.330356;0.0;10.0;-4.83;0.198331;USA;-97.0;38.0
I Wanna Dance With Somebody (Who Loves Me);Whitney Houston;;4;0.930465;0.040316;119.1;0.05394;0.078565;0.744721;0.021381;1.0;-6.706;0.849714;Newark,, NJ;-74.22509;40.736101
We Found Love (Glee Cast Version);Glee Cast;;4;0.800105;0.174229;128.005;0.064911;0.016099;0.733201;0.002536;1.0;-5.036;0.691367;USA;-97.0;38.0
Soldier;Damien;;3;0.230838;0.113082;116.552;0.031087;0.813581;0.726779;0.0;0.0;-9.934;0.275686;Kildare,, Ireland;-6.9144444;53.1561111
Slave To The Rhythm;Michael Jackson;;4;0.96406;0.339923;127.996;0.135974;0.006498;0.688539;0.000186;8.0;-2.126;0.821583;Gary,, IN;-87.319937;41.590686
Mean To Me;Brett Eldredge;;4;0.580332;0.120425;87.998;0.031248;0.111901;0.646671;2e-06;0.0;-6.893;0.164436;Paris,, IL;-87.740488;39.638496
Hey Pretty Girl;Kip Moore;;1;0.371075;0.186199;82.897;0.031909;0.149267;0.301962;2.3e-05;2.0;-10.741;0.081991;Nashville,, TN;-86.778098;36.165688
I Want To Know What Love Is;Terry McDermott;;3;0.350718;0.307969;79.757;0.033484;0.742946;0.529586;0.0;2.0;-5.755;0.251138;Aberdeen,, Scotland;-2.1;57.133333
Dark Side;Kelly Clarkson;;4;0.822979;0.327663;118.876;0.050372;0.118453;0.542892;1e-06;7.0;-5.734;0.325221;Burleson,, TX;-97.264359;32.492683
Mary\ Did You Know?;Pentatonix;;4;0.313845;0.099888;105.02;0.026967;0.296437;0.512697;0.0;11.0;-9.084;0.15828;Arlington,, TX;-97.148829;32.635563
Closer;Tegan And Sara;;4;0.750865;0.352518;136.979;0.03281;0.001745;0.588232;6.6e-05;0.0;-7.588;0.523725;Calgary,, Alberta,, CA;-114.063;51.0452
Crazy Kids;Ke$ha;Featuring will.i.am or Juicy J;4;0.75343;0.127001;128.002;0.043976;0.037916;0.717797;0.00011;0.0;-3.81;0.500221;Los Angeles,, CA;-118.248405;33.973951
Boom Clap;Charli XCX;;4;0.875226;0.157738;183.866;0.142084;0.066367;0.558518;0.000275;4.0;-3.433;0.529537;London,, UK;-0.1278328;51.5072648
Ooh La La;Britney Spears;;4;0.321028;0.056727;130.692;0.051989;0.009715;0.680281;4.7e-05;6.0;-16.164;0.861218;Kentwood,, LA;-90.428043;30.814466
I Found You;The Wanted;;4;0.803588;0.688521;128.943;0.129016;0.186107;0.737396;0.0;9.0;-4.937;0.543336;London,, England,, GB;-0.12714;51.5063
Skyfall;Adele;;4;0.303675;0.116501;76.698;0.02889;0.51061;0.311319;1e-06;0.0;-17.53;0.162093;London,, UK;-0.1278328;51.5072648
A Sky Full Of Stars;Coldplay;;4;0.201302;0.221351;78.558;0.031942;0.946036;0.475183;0.009068;6.0;-17.984;0.08749;London,, England;-0.1278328;51.5072648
G.U.Y.;Lady Gaga;;4;0.931647;0.056095;110.014;0.043808;0.015291;0.624852;0.0;5.0;-3.747;0.645389;New York,, NY,, US;-74.0071;40.7146
Berzerk;Eminem;;4;0.747494;0.066941;95.004;0.416289;0.025097;0.697033;0.0;6.0;-10.51;0.513436;detroit,, MI;-83.060184;42.347021
Cry;Cassadee Pope;;3;0.672786;0.122453;113.056;0.028886;0.013377;0.531854;0.0;9.0;-3.886;0.322424;West Palm Beach,, FL;-80.070249;26.715844
Wild For The Night;A$AP Rocky;Featuring Skrillex &amp,; Birdy Nam Nam;4;0.843366;0.960891;140.097;0.392851;0.116903;0.517475;0.0;2.0;-6.261;0.617739;Harlem,, NY;-73.9458333;40.8077778
Aw Naw;Chris Young;;4;0.889745;0.142927;109.945;0.032701;0.033308;0.622064;0.0;2.0;-3.274;0.580361;Murfreesboro,, TN;-86.372158;35.762951
Beware;Big Sean;Featuring Lil Wayne &amp,; Jhene Aiko;4;0.615245;0.61725;98.863;0.170675;0.224864;0.733623;0.0;1.0;-5.43;0.139162;Detroit,, MI;-83.060184;42.347021
Party Rock Anthem;LMFAO;Featuring Lauren Bennett &amp,; GoonRock;4;0.391531;0.294185;128.012;0.073913;0.001978;0.710749;0.659604;9.0;-17.076;0.305198;Los Angeles,, CA;-118.248405;33.973951
I Dreamed A Dream;Anne Hathaway;;3;0.076927;0.086405;67.775;0.045533;0.941548;0.323309;3.1e-05;10.0;-17.198;0.142374;Brooklyn,, New York,, NY,, US;-73.9489;40.6551
99 Problems;Tony Lucca;;4;0.803666;0.205303;166.05;0.058951;0.026326;0.610861;0.0;2.0;-4.088;0.871187;Waterford,, MI;-83.406111;42.644824
Make It Nasty;Tyga;;4;0.833391;0.759837;98.254;0.202093;0.241276;0.861102;0.0;1.0;-4.508;0.725958;Compton,, CA;-118.240208;33.874815
I Mean It;G-Eazy;Featuring Remo;4;0.587389;0.147054;139.867;0.18791;0.140325;0.712689;0.0;10.0;-5.281;0.131149;louisiana;-91.8749;31.1801
Tornado;Little Big Town;;4;0.366949;0.093603;97.016;0.04965;0.084349;0.705761;0.000616;3.0;-18.623;0.322301;Homewood,, AL;-86.800823;33.471773
Sorry For Party Rocking;LMFAO;;4;0.822277;0.687957;133.125;0.251649;0.006506;0.515721;0.0;0.0;-6.34;0.555695;Los Angeles,, CA;-118.248405;33.973951
Budapest;George Ezra;;4;0.445735;0.111525;127.813;0.028042;0.240207;0.709873;0.0;5.0;-8.946;0.402752;Bristol,, UK;-2.583333;51.45
Homegrown Honey;Darius Rucker;;4;0.909539;0.046726;87.983;0.056872;0.12475;0.649445;0.0;1.0;-5.185;0.86482;Charleston,, SC;-79.940844;32.780326
Sad;Amber Carrington;;4;0.47667;0.197748;113.759;0.02958;0.733134;0.403299;0.0;10.0;-4.297;0.367337;Rockwall,, TX;-96.4594444;32.9311111
Preach;Drake;Featuring PARTYNEXTDOOR;4;0.500241;0.104312;129.965;0.430187;0.204085;0.581765;9.2e-05;2.0;-8.024;0.404274;Toronto,, Canada;-79.416667;43.666667
Gas Pedal;Sage The Gemini;Featuring IamSu;4;0.530428;0.103071;97.519;0.056224;0.055642;0.843805;0.0;1.0;-7.511;0.436792;Fairfield,, CA;-122.135862;38.244889
The Outsiders;Eric Church;;4;0.802835;0.101562;80.011;0.061517;0.280218;0.514592;4.6e-05;7.0;-5.26;0.315312;Granite Falls,, NC;-81.43065;35.79652
Mine;Beyonce;Featuring Drake;4;0.427718;0.139492;103.009;0.136984;0.067317;0.556571;0.001899;5.0;-11.299;0.097107;Houston,, TX;-95.309789;29.813142
God Made Girls;RaeLynn;;4;0.912112;0.184862;156.051;0.029767;0.11088;0.496093;7e-06;3.0;-2.983;0.768081;Baytown,, Texas;-94.994123;29.733283
Wu-Tang Forever;Drake;;4;0.414713;0.099536;99.931;0.269073;0.057244;0.831842;0.0;1.0;-8.472;0.371548;Toronto,, Canada;-79.416667;43.666667
Good Girl;Carrie Underwood;;4;0.844961;0.18962;128.964;0.068362;0.027521;0.628338;0.0;0.0;-2.891;0.708149;Checotah,, OK,, US;-95.5224;35.47
Handsome And Wealthy;Migos;;4;0.569915;0.052488;145.905;0.127474;0.00121;0.871717;0.0;11.0;-6.312;0.246648;Lawrenceville,, GA;-84.103226;33.929464
Happy;Pharrell Williams;;4;0.702971;0.27151;159.803;0.105379;0.282856;0.641703;0.0;5.0;-8.829;0.966271;Virginia Beach,, Virginia;-76.12036;36.844004
Dance (A$$);Big Sean;Featuring Nicki Minaj;4;0.595519;0.441652;161.803;0.387937;0.015881;0.654347;0.094659;11.0;-10.163;0.640534;Detroit,, MI;-83.060184;42.347021
Let Me Go;Avril Lavigne;Featuring Chad Kroeger;3;0.675454;0.213358;164.116;0.036476;0.132087;0.406268;0.0;4.0;-6.434;0.158849;Napanee,, Canada;-76.95;44.25
Dangerous;David Guetta;Featuring Sam Martin;4;0.747182;0.106907;92.161;0.079477;0.417449;0.465988;1e-05;4.0;-4.838;0.430434;Paris,, France ;2.333333;48.866667
We Are Young;Glee Cast;;4;0.559135;0.204444;184.895;0.074451;0.051628;0.326415;0.0;7.0;-6.109;0.574985;USA;-97.0;38.0
Work B**ch!;Britney Spears;;4;0.758382;0.055558;127.965;0.14955;0.083946;0.637061;0.000393;6.0;-8.334;0.809242;Kentwood,, LA;-90.428043;30.814466
Try;P!nk;;4;0.719436;0.095801;104.004;0.036979;0.001025;0.576629;0.0;2.0;-4.959;0.491947;Abington,, PA;-75.114767;40.123805
Drinking Class;Lee Brice;;4;0.5295;0.154109;109.003;0.030083;0.088597;0.662982;0.0;1.0;-9.763;0.26225;Sumter,, SC;-80.354238;33.913678
Beauty And A Beat;Justin Bieber;Featuring Nicki Minaj;4;0.772988;0.083122;128.384;0.083079;0.126042;0.457297;0.000158;0.0;-6.099;0.273818;Stratford,, Canada;-80.983333;43.366667
A Little Too Much;Shawn Mendes;;4;0.519109;0.108814;87.105;0.031603;0.471517;0.450246;0.0;11.0;-6.27;0.585581;Pickering,, Ontario,, Canada;-95.0;60.0
The Trouble With Girls;Scotty McCreery;;4;0.480131;0.108837;132.061;0.028401;0.386723;0.556361;0.0;10.0;-7.877;0.361382;Garner,, NC;-78.61417;35.71126
Wide Awake;Katy Perry;;4;0.665251;0.379735;80.029;0.072166;0.094494;0.536163;2.1e-05;5.0;-8.16;0.538232;Los Angeles,, CA;-118.248405;33.973951
I Love It;Icona Pop;Featuring Charli XCX;4;0.757349;0.195615;126.016;0.034048;0.000368;0.603236;0.964525;8.0;-7.184;0.949081;Stockholm,, Stockholm,, SE;18.0624;59.3322
One Thing;One Direction;;4;0.8952;0.253594;125.694;0.033222;0.000811;0.575696;0.0;2.0;-2.434;0.650643;London,, England,, GB;-0.12714;51.5063
Way Too Cold;Kanye West;Featuring DJ Khaled;4;0.681968;0.25265;80.038;0.115571;8.9e-05;0.351217;0.0;4.0;-8.168;0.4775;Chicago,, IL;-87.658544;41.902042
All Kinds Of Kinds;Miranda Lambert;;3;0.659752;0.124842;158.501;0.028795;0.266954;0.396721;0.0;0.0;-5.874;0.444485;Lindale,, TX;-95.400598;32.506185
You Are In Love;Taylor Swift;;4;0.480272;0.090259;170.109;0.062198;0.706913;0.473943;0.000108;2.0;-8.894;0.29706;Reading,, PA;-75.940153;40.357242
Bad Ass;Kid Ink;Featuring Meek Mill &amp,; Wale;4;0.589629;0.149836;140.979;0.153648;0.115936;0.561635;0.0;8.0;-9.765;0.962899;Los Angeles,, CA,, US;-118.245;34.0535
Do I Wanna Know?;Arctic Monkeys;;4;0.532495;0.216557;85.03;0.032262;0.18552;0.548087;0.000263;5.0;-7.596;0.42801;Sheffield,, England,, GB;-1.46454;53.3831
Rock Me;One Direction;;4;0.916504;0.279698;168.018;0.055004;0.03541;0.50294;0.0;8.0;-3.595;0.788763;London,, England,, GB;-0.12714;51.5063
Celebration;Game;Featuring Chris Brown\ Tyga\ Wiz Khalifa &amp,; Lil Wayne;4;0.533805;0.150964;73.035;0.67585;0.386873;0.506814;0.0;10.0;-14.769;0.542207;Compton,, CA,, US;-118.224;33.8953
Old School Love;Lupe Fiasco;Featuring Ed Sheeran;4;0.414424;0.353841;87.744;0.184698;0.072973;0.695499;3e-06;10.0;-20.481;0.48531;Chicago,, IL,, US;-87.6324;41.8842
Dance For You;Beyonce;;4;0.47687;0.516786;110.105;0.066721;0.054623;0.663738;0.0;2.0;-14.634;0.733948;Houston,, TX;-95.309789;29.813142
Love Me Like You Mean It;Kelsea Ballerini;;4;0.858328;0.380063;76.012;0.054888;0.047508;0.64202;0.0;11.0;-5.658;0.920498;Franklin,, TN;-86.965691;35.890746
Donald Trump;Mac Miller;;4;0.900654;0.390673;162.994;0.118143;0.118814;0.636362;0.0;1.0;-7.094;0.830315;Pittsburgh,, PA;-79.950968;40.47441
New Day;50 Cent;Featuring Dr. Dre &amp,; Alicia Keys;4;0.82951;0.041334;96.902;0.193444;0.062448;0.616393;0.0;2.0;-4.198;0.705829;South Jamaica,, New York,, NY,, US;-73.7875;40.6775
More Than Miles;Brantley Gilbert;;4;0.764484;0.338734;151.964;0.038156;0.040773;0.470223;0.000182;5.0;-5.974;0.43014;Jefferson,, GA,, US;-83.571;34.1186
The Fighter;Gym Class Heroes;Featuring Ryan Tedder;4;0.58356;0.266555;100.99;0.090413;0.181923;0.606193;0.0;7.0;-17.379;0.529142;Geneva,, NY ;-77.034883;42.857414
2 On;Tinashe;Featuring ScHoolboy Q;4;0.693861;0.40897;200.01;0.33301;0.390766;0.635726;3e-06;0.0;-9.794;0.624241;Los Angeles,, Ca;-118.248405;33.973951
Settle Down;No Doubt;;4;0.591035;0.148383;104.013;0.044067;0.004993;0.682911;0.008989;11.0;-12.781;0.339984;Anaheim,, Ca;-117.952151;33.844983
Call Me Maybe;Carly Rae Jepsen;;4;0.589124;0.106743;120.04;0.045881;0.001501;0.868871;0.866326;7.0;-9.05;0.461409;Mission,, Canada ;-122.3;49.133333
Games;Luke Bryan;;4;0.883251;0.111174;158.04;0.096727;0.22137;0.508007;0.0;8.0;-3.402;0.879052;Nashville,, Tennessee ;-86.778098;36.165688
The Heart Wants What It Wants;Selena Gomez;;4;0.789205;0.141869;83.066;0.037733;0.052981;0.615848;0.0;7.0;-4.874;0.627227;Hollywood,, Los Angeles,, CA,, US;-118.337;34.1016
Helluva Life;Frankie Ballard;;4;0.740804;0.144345;134.044;0.028077;0.064694;0.567043;0.0;6.0;-6.294;0.508469;Battle Creek,, MI,, US;-85.1802;42.3162
Trap Queen;Fetty Wap;;4;0.760688;0.06821;148.109;0.112498;0.141339;0.791715;0.0;7.0;-4.359;0.824241;Paterson,, New Jersey United States ;-82.688125;40.078875
Goodbye Town;Lady Antebellum;;4;0.503409;0.114434;95.002;0.029415;0.126605;0.663293;5e-06;4.0;-13.485;0.568462;Nashville,, Tennessee;-86.778098;36.165688
Lonely Boy;The Black Keys;;4;0.763907;0.666069;84.93;0.048612;0.003555;0.442343;0.038447;9.0;-11.722;0.598098;Akron,, OH,, US;-81.5141;41.0842
Lips Are Movin;Meghan Trainor;;4;0.828707;0.121876;139.075;0.04596;0.048375;0.775221;1e-06;7.0;-5.465;0.947887;Nantucket,, MA,, US;-70.0993;41.2852
Somebody That I Used To Know;Gotye;Featuring Kimbra;4;0.47601;0.114956;126.453;0.042021;0.61103;0.858349;0.000245;10.0;-8.458;0.761888;Bruges,, Belgium;3.233333;51.216667
Chains;Nick Jonas;;4;0.596073;0.073737;151.995;0.064211;0.014479;0.537699;0.0;0.0;-6.336;0.116077;Wyckoff,, NJ,, US;-74.1667;41.0108
The Other Side;Jason Derulo;;5;0.869991;0.129695;127.912;0.142064;0.198755;0.520542;0.0;9.0;-3.578;0.426716;Miami,, FL;-80.1532;25.779808
Some Nights;fun.;;4;0.737911;0.092724;107.938;0.050597;0.017752;0.672228;6.7e-05;0.0;-7.045;0.400583;New York,, NY;-74.005973;40.714269
Say You Do;Dierks Bentley;;4;0.731499;0.098092;147.909;0.036321;0.133481;0.470369;0.000737;3.0;-8.185;0.488072;Tempe,, AZ;-111.931298;33.401395
Versace;Migos;;4;0.724512;0.292241;132.041;0.254518;0.039862;0.836904;0.0;6.0;-3.113;0.43565;Lawrenceville,, GA;-84.103226;33.929464
Cannonball;Lea Michele;;4;0.758715;0.1403;91.985;0.056157;0.024467;0.545543;1.4e-05;4.0;-5.855;0.419577;Tenafly,, NJ;-73.960481;40.919298
Show Me;Kid Ink;Featuring Chris Brown;4;0.480297;0.760671;97.968;0.05456;0.006714;0.68541;0.0;7.0;-9.619;0.575013;Los Angeles,, CA,, US;-118.245;34.0535
Someone Like You;Adele;;4;0.320976;0.099559;135.047;0.02805;0.893191;0.554064;0.0;9.0;-8.251;0.288915;London,, UK;-0.1278328;51.5072648
Mirrors;Justin Timberlake;;4;0.649034;0.41326;76.998;0.051418;0.144022;0.570027;0.0;8.0;-4.91;0.69661;Memphis,, TN;-89.990415;35.169255
Dare (La La La);Shakira;;4;0.724125;0.123185;128.027;0.069599;0.065278;0.795015;3e-05;11.0;-5.23;0.660921;Barranquilla,, Atlantico,, CO;-74.7797;10.9406
Ready To Run;One Direction;;4;0.83086;0.170823;115.067;0.035999;0.002288;0.524419;0.0;2.0;-4.174;0.307951;London,, England,, GB;-0.12714;51.5063
Out Of The Woods;Taylor Swift;;4;0.841463;0.336753;91.993;0.037233;0.001028;0.551585;1.2e-05;7.0;-6.938;0.33025;Reading,, PA;-75.940153;40.357242
The Way;Ariana Grande;Featuring Mac Miller;4;0.757537;0.08366;82.569;0.248411;0.258369;0.664106;0.0;5.0;-6.059;0.806299;Boca Raton,, FL;-80.10717;26.375954
I Will Always Love You;Whitney Houston;;5;0.30627;0.159085;168.466;0.040839;0.333138;0.229106;2e-06;4.0;-9.323;0.103875;Newark,, NJ;-74.22509;40.736101
Monster;Imagine Dragons;;4;0.765275;0.107596;179.96;0.078761;0.161121;0.480257;0.000286;3.0;-5.371;0.442698;Las Vegas,, NV,, US;-115.14;36.1719
Only;Nicki Minaj;Featuring Drake\ Lil Wayne &amp,; Chris Brown;4;0.523547;0.094042;119.894;0.472425;0.400224;0.840997;0.0;8.0;-7.029;0.32827;New York,, NY;-74.005973;40.714269
Glad You Came (Glee Cast Version);Glee Cast;;4;0.755203;0.111579;126.879;0.194564;0.46472;0.670425;0.0;7.0;-5.891;0.381454;USA;-97.0;38.0
Tear In My Heart;twenty one pilots;;4;0.631788;0.075062;120.235;0.052752;0.018993;0.66272;0.0;2.0;-4.809;0.502127;Columbus,, Ohio;-81.949111;41.3056
Undefeated;Jason Derulo;;4;0.715611;0.230419;130.023;0.038664;7.4e-05;0.575487;0.0;0.0;-7.268;0.647215;Miami,, FL;-80.1532;25.779808
Drive;Miley Cyrus;;4;0.679192;0.159943;142.953;0.05743;0.052425;0.591831;1e-06;6.0;-6.682;0.304306;Nashville,, TN;-86.778098;36.165688
The First Time Ever I Saw Your Face;Glee Cast;;4;0.29374;0.089253;123.586;0.033309;0.560269;0.324276;0.05921;7.0;-11.018;0.088331;USA;-97.0;38.0
Take It To The Head;DJ Khaled;Featuring Chris Brown\ Rick Ross\ Nicki Minaj &amp,; Lil Wayne;4;0.851293;0.658383;142.018;0.080998;0.001655;0.714685;0.0;11.0;-2.901;0.64521;Miami,, FL,, US;-80.2374;25.729
Madness;Muse;;4;0.450443;0.269724;90.115;0.045915;0.153143;0.616599;0.00337;10.0;-6.247;0.218576;Teignmouth,, Devon,, England;-3.4951629;50.5462646
Stereo Hearts;Gym Class Heroes;Featuring Adam Levine;4;0.881546;0.344576;100.002;0.146745;0.020114;0.497904;0.0;9.0;-4.551;0.333792;Geneva,, NY ;-77.034883;42.857414
Climax;Usher;;4;0.865386;0.44697;128.062;0.066367;0.102203;0.455586;0.000257;8.0;-4.314;0.211341;Atlanta,, Georgia ;-84.47405;33.844371
Time Is Love;Josh Turner;;4;0.733012;0.169102;111.98;0.030315;0.067298;0.688495;2e-06;2.0;-5.662;0.626824;South Carolina,, US;-80.9474;33.6265
Watch Me;Silento;;4;0.759449;0.320703;140.01;0.120954;0.247341;0.820924;0.0;8.0;-8.541;0.961884;NA;0;0
Empire;Shakira;;4;0.628064;0.05603;80.027;0.060271;0.732652;0.540844;1e-06;0.0;-4.682;0.35358;Barranquilla,, Atlantico,, CO;-74.7797;10.9406
Title;Meghan Trainor;;4;0.753529;0.096469;89.998;0.096628;0.343036;0.779196;3e-06;5.0;-4.358;0.880514;Nantucket,, MA,, US;-70.0993;41.2852
Sweet Annie;Zac Brown Band;;4;0.430374;0.106103;139.984;0.030113;0.184898;0.637854;1e-06;6.0;-8.305;0.178117;Dahlonega,, Georgia;-84.024387;34.541371
Love Me Again;John Newman;;4;0.547407;0.170624;128.007;0.046553;0.000155;0.679509;0.00419;2.0;-16.09;0.485702;Settle,, England;-2.276127;54.0694739
Lotus Flower Bomb;Wale;Featuring Miguel;4;0.561716;0.103165;77.878;0.075383;0.635138;0.728258;0.0;10.0;-5.519;0.308705;NA;0;0
Still Into You;Paramore;;4;0.922916;0.056053;136.01;0.043968;0.009799;0.601929;0.0;5.0;-3.763;0.739967;Franklin,, TN;-86.965691;35.890746
Rack City;Tyga;;4;0.314554;0.39225;99.015;0.547896;0.020483;0.927891;1.4e-05;1.0;-11.875;0.254455;Compton,, CA;-118.240208;33.874815
Burn;Ellie Goulding;;4;0.760568;0.101462;173.983;0.068164;0.311176;0.309802;0.0;10.0;-5.055;0.277317;Lyonshall,, England;-2.9799155;52.200524
Dance Again;Jennifer Lopez;Featuring Pitbull;4;0.530094;0.097873;130.594;0.09113;0.055752;0.78643;2e-06;11.0;-17.069;0.778892;New York,, N;-74.9384;42.1497
Drink In My Hand;Eric Church;;4;0.91531;0.288199;113.027;0.031411;0.005212;0.625779;1e-06;0.0;-4.626;0.940783;Granite Falls,, NC;-81.43065;35.79652
Afire Love;Ed Sheeran;;4;0.63698;0.135917;97.97;0.044478;0.464339;0.551988;1.6e-05;5.0;-6.568;0.33262;Suffolk,, England;1.0;52.166667
Brokenhearted;Karmin;;4;0.904764;0.371883;127.976;0.054883;0.062056;0.702142;0.003185;4.0;-4.59;0.840712;Boston,, MA;-71.026964;42.370567
Die Young;Ke$ha;;4;0.890788;0.664991;127.915;0.148715;0.004485;0.655169;0.013442;4.0;-4.666;0.501322;Los Angeles,, CA;-118.248405;33.973951
Starships;Nicki Minaj;;4;0.713485;0.267496;128.922;0.150832;0.222771;0.706771;4e-06;11.0;-7.198;0.62332;New York,, NY;-74.005973;40.714269
Errrbody;Yo Gotti;;4;0.535882;0.05003;103.945;0.055259;0.225767;0.874911;0.0;2.0;-6.077;0.230961;Memphis,, TN;-89.990415;35.169255
Runaways;The Killers;;4;0.553129;0.089105;121.778;0.035621;0.000966;0.427236;0.018312;1.0;-14.407;0.333097;Las Vegas,, NV;-115.206969;36.301068
Pumped Up Kicks;Foster The People;;4;0.549104;0.374677;128.278;0.036761;0.390188;0.664337;0.195051;8.0;-16.95;0.96937;Los Angeles,, CA,, US;-118.245;34.0535
Like Jesus Does;Eric Church;;4;0.146822;0.339909;141.119;0.046964;0.831917;0.664968;0.0;2.0;-15.35;0.441328;Granite Falls,, NC;-81.43065;35.79652
I See You;Luke Bryan;;4;0.179551;0.164353;122.37;0.942314;0.976519;0.737978;0.0;10.0;-21.12;0.700865;Nashville,, Tennessee ;-86.778098;36.165688
Say Something;A Great Big World;Featuring Christina Aguilera;3;0.156305;0.084342;139.997;0.035548;0.873707;0.518834;2e-06;2.0;-7.543;0.14883;New York,, NY;-74.005973;40.714269
Wit Me;T.I.;Featuring Lil Wayne;4;0.738248;0.318478;141.998;0.119135;0.041532;0.678068;0.0;1.0;-3.943;0.38647;Atlanta,, GA;-84.47405;33.844371
True Love;P!nk;Featuring Lily Allen;4;0.807376;0.107849;191.888;0.220638;0.004667;0.452146;0.0;9.0;-6.544;0.620584;Abington,, PA;-75.114767;40.123805
Blurred Lines;Robin Thicke;Featuring T.I. &amp,; Pharrell;4;0.335597;0.051082;119.985;0.067942;0.009258;0.853794;6.3e-05;7.0;-13.722;0.889898;Los Angeles,, CA;-118.248405;33.973951
Sunny And 75;Joe Nichols;;4;0.889396;0.09666;120.035;0.055578;0.090842;0.523813;7e-06;0.0;-4.351;0.21404;Rogers,, AR;-93.978383;36.320391
El Perdedor;Enrique Iglesias;Featuring Marco Antonio Solis;4;0.474067;0.123929;137.873;0.040293;0.708661;0.646782;0.0;8.0;-5.89;0.31279;Miami,, FL;-80.1532;25.779808
Lifestyle;Rich Gang;Featuring Young Thug &amp,; Rich Homie Quan;4;0.62659;0.089082;88.431;0.283149;0.015396;0.636443;0.0;6.0;-6.65;0.470452;NA;0;0
Let Her Go;Passenger;;5;0.08331;0.112828;77.167;0.059527;0.882687;0.50992;1e-06;6.0;-23.215;0.398098;Brighton,, England;-0.1473061;50.8288134
Red;Taylor Swift;;4;0.896457;0.092388;124.962;0.04561;0.076551;0.608309;0.000126;1.0;-4.231;0.614425;Reading,, PA;-75.940153;40.357242
Blank Space;Taylor Swift;;4;0.678207;0.130076;96.009;0.064559;0.085046;0.752214;2e-06;5.0;-5.421;0.566263;Reading,, PA;-75.940153;40.357242
God Gave Me You;Blake Shelton;;4;0.825466;0.407066;151.991;0.031373;0.004081;0.48825;9.7e-05;2.0;-5.61;0.507658;Nashville,, TN;-86.778098;36.165688
Goodnight Kiss;Randy Houser;;4;0.633559;0.095769;111.023;0.033449;0.033708;0.716213;2.9e-05;1.0;-6.896;0.650359;Lake,, MS;-89.32868;32.3432
Take A Little Ride;Jason Aldean;;4;0.853198;0.191468;163.934;0.04167;0.055043;0.464039;0.0;2.0;-3.767;0.75665;Macon,, GA;-83.617554;32.804382
Masterpiece;Jessie J;;4;0.413454;0.09154;146.832;0.087355;0.022057;0.639024;0.0;0.0;-14.192;0.691886;Chadwell Heath,, London,, England,, GB;0.14148;51.5734
Jealous;Nick Jonas;;4;0.6977;0.472823;92.992;0.118832;0.013345;0.699613;0.0;11.0;-3.822;0.383525;Wyckoff,, NJ,, US;-74.1667;41.0108
What About Love;Austin Mahone;;4;0.778291;0.044079;100.018;0.044101;0.000332;0.628024;1e-06;2.0;-7.433;0.240893;San Antonio,, TX;-98.528889;29.468413
Best I Ever Had;Gavin DeGraw;;4;0.917619;0.307386;134.96;0.069817;0.001819;0.557962;0.0;7.0;-6.508;0.541205;South Fallsburg,, NY;-74.63498;41.72175
19 You + Me;Dan + Shay;;1;0.285164;0.274507;105.788;0.847271;0.758064;0.754471;0.0;8.0;-16.862;0.799086;Nashville,, TN;-86.778098;36.165688
Changed;Rascal Flatts;;4;0.540566;0.101453;140.404;0.033231;0.068289;0.441609;1.5e-05;4.0;-6.941;0.254;Columbus,, OH;-83.013402;40.100924
Part II (On The Run);Jay Z;Featuring Beyonce;4;0.643147;0.426244;87.034;0.088623;0.312077;0.62349;0.0;8.0;-5.754;0.32316;Brooklyn,, NY;-73.989319;40.694481
Daylight;Maroon 5;;4;0.310495;0.411779;119.942;0.075226;0.095799;0.658368;0.0;7.0;-21.394;0.339566;Los Angeles,, CA;-118.248405;33.973951
High School;Nicki Minaj;Featuring Lil Wayne;4;0.572668;0.777766;87.36;0.25446;0.028649;0.580876;0.000808;1.0;-6.553;0.229704;New York,, NY;-74.005973;40.714269
Where You Belong;The Weeknd;;4;0.425001;0.226432;119.991;0.032609;0.174287;0.556845;0.0;9.0;-8.006;0.107977;Toronto,, Ontario,, CA;-79.3853;43.6486
Sledgehammer;Fifth Harmony;;4;0.776485;0.098901;99.986;0.043342;0.005035;0.680854;0.001223;2.0;-4.399;0.304452;Miami,, FL;-80.1532;25.779808
No Hurry;Zac Brown Band;;4;0.53995;0.254462;145.99;0.028653;0.345873;0.571647;0.0;3.0;-5.792;0.386528;Dahlonega,, Georgia;-84.024387;34.541371
Sail;AWOLNATION;;4;0.22648;0.080735;121.62;0.067762;0.321655;0.800043;0.648573;1.0;-21.166;0.359564;Los Angeles,, CA,, US;-118.245;34.0535
Happy Little Pill;Troye Sivan;;4;0.569223;0.115421;91.915;0.040099;0.001236;0.599032;4e-06;4.0;-7.708;0.039203;Perth Western Australia;133.0;-27.0
Feds Watching;2 Chainz;Featuring Pharrell;4;0.872072;0.312527;140.007;0.090346;0.055134;0.79043;0.0;7.0;-6.552;0.738765;College Park,, GA;-84.449373;33.653443
The Matrimony;Wale;Featuring Usher;4;0.405817;0.384421;77.272;0.178126;0.377551;0.379062;0.0;8.0;-17.012;0.534849;Washington DC;-77.036366;38.895112
F**kin Problems;A$AP Rocky;Featuring Drake\ 2 Chainz &amp,; Kendrick Lamar;4;0.686803;0.114165;96.006;0.262926;0.020785;0.868885;1e-06;1.0;-6.816;0.667823;Harlem,, NY;-73.9458333;40.8077778
Without Me;Fantasia;Featuring Kelly Rowland &amp,; Missy Elliott;4;0.684916;0.21542;75.052;0.203695;0.138081;0.712061;1e-06;6.0;-7.575;0.53378;High Point,, NC;-80.0055556;35.9555556
Next To Me;Emeli Sande;;4;0.385645;0.090232;90.54;0.035034;0.789702;0.519612;0.00026;0.0;-7.403;0.248425;London,, England;-0.1278328;51.5072648
See You Again;Carrie Underwood;;4;0.253414;0.35114;89.115;0.944536;0.868596;0.742203;0.0;5.0;-12.164;0.813973;Checotah,, OK,, US;-95.5224;35.47
Beez In The Trap;Nicki Minaj;Featuring 2 Chainz;4;0.761878;0.096285;149.981;0.22061;0.024925;0.809659;0.004331;9.0;-6.053;0.664957;New York,, NY;-74.005973;40.714269
Blackout;Breathe Carolina;;4;0.435386;0.088608;125.532;0.174126;0.010855;0.656266;0.0;1.0;-17.962;0.837612;Denver,, CO,, US;-104.992;39.74
Slow Down;Selena Gomez;;4;0.785657;0.610183;127.91;0.147587;0.06938;0.715116;0.0;1.0;-4.219;0.693583;Hollywood,, Los Angeles,, CA,, US;-118.337;34.1016
Kisses Down Low;Kelly Rowland;;4;0.545412;0.088723;138.012;0.078694;0.027217;0.626921;0.000141;5.0;-15.972;0.236752;houston,, texas;-96.919704;29.845783
Chinese Food;Alison Gold;;4;0.705887;0.235128;128.998;0.053583;0.006394;0.636025;0.0;5.0;-8.817;0.769882;Fairfax,, Virginia;-77.3066667;38.8461111
V. 3005;Childish Gambino;;4;0.461154;0.097304;165.985;0.332621;0.149141;0.472655;0.0;6.0;-6.474;0.611064;Stone Mountain,, Georgia,, US;-84.170196;33.808161
Point At You;Justin Moore;;4;0.79494;0.147325;115.997;0.046654;0.013068;0.629171;0.0;7.0;-5.772;0.865735;Poyen,, AR;-92.609528;34.3023
T.H.E (The Hardest Ever);will.i.am;Featuring Mick Jagger &amp,; Jennifer Lopez;4;0.692513;0.035841;105.997;0.118302;0.131929;0.602976;2e-06;9.0;-5.215;0.416585;Los Angeles,, CA;-118.248405;33.973951
The Wind;Zac Brown Band;;4;0.947507;0.303177;136.075;0.053923;0.204569;0.691335;0.0;6.0;-4.114;0.867244;Dahlonega,, Georgia;-84.024387;34.541371
Bubble Butt;Major Lazer;Featuring Bruno Mars\ Tyga &amp,; Mystic;4;0.462251;0.078386;97.001;0.297273;0.006039;0.874982;0.00496;7.0;-17.035;0.497759;Kingston,, Jamaica;-76.8;18.0
Alone Together;Fall Out Boy;;4;0.909101;0.215058;179.938;0.082493;0.001586;0.46506;2.3e-05;9.0;-3.702;0.621166;Wilmette,, IL,, US;-87.7077;42.0756
La La La;Naughty Boy;Featuring Sam Smith;4;0.404639;0.106285;125.067;0.041305;0.111982;0.74334;0.0;6.0;-15.127;0.288773;Watford,, England;-0.4;51.666667
No Love;August Alsina;;4;0.631212;0.919227;130.961;0.104931;0.0071;0.614226;0.0;0.0;-8.597;0.329056;New Orleans Louisiana;-89.930956;30.068812
Set You Free;3OH!3;;4;0.805739;0.298275;79.964;0.121918;0.10435;0.609301;0.0;8.0;-4.165;0.602351;Boulder,, CO,, US;-105.279;40.0157
Cough Syrup;Glee Cast;;4;0.836072;0.103764;129.0;0.027887;0.009983;0.578162;3.3e-05;2.0;-5.38;0.332325;USA;-97.0;38.0
All Too Well;Taylor Swift;;4;0.600853;0.133959;93.059;0.024542;0.046728;0.605136;0.000667;0.0;-7.816;0.328771;Reading,, PA;-75.940153;40.357242
Tattoos On This Town;Jason Aldean;;4;0.733128;0.131249;81.168;0.043106;0.015943;0.486639;7.6e-05;2.0;-7.368;0.479168;Macon,, GA;-83.617554;32.804382
Bo$$;Fifth Harmony;;4;0.872878;0.050911;102.997;0.131301;0.006578;0.808109;0.0;6.0;-5.217;0.755239;Miami,, FL;-80.1532;25.779808
She Knows (Ne-Yo Version);Ne-Yo;Featuring Juicy J;4;0.601999;0.621694;139.988;0.031087;0.013201;0.703634;0.0;8.0;-4.439;0.575919;Las Vegas,, Nevada;-115.206969;36.301068
My Life;50 Cent;Featuring Eminem &amp,; Adam Levine;4;0.93512;0.38333;176.008;0.275783;0.050141;0.648989;2e-06;1.0;-4.414;0.502226;South Jamaica,, New York,, NY,, US;-73.7875;40.6775
All Of Me;John Legend;;4;0.622443;0.350252;127.976;0.052484;0.013048;0.523109;9.1e-05;5.0;-13.883;0.123666;Springfield,, OH;-83.813228;39.927059
Radio;Darius Rucker;;4;0.845989;0.072017;92.974;0.053907;0.142074;0.721923;0.0;0.0;-6.838;0.965263;Charleston,, SC;-79.940844;32.780326
Good Kisser;Usher;;4;0.090803;0.913805;97.031;0.031537;0.658494;0.260298;0.000171;5.0;-21.615;0.154729;Atlanta,, Georgia ;-84.47405;33.844371
Crash My Party;Luke Bryan;;4;0.429832;0.341821;144.015;0.046632;0.02849;0.530104;0.0;7.0;-17.096;0.591093;Nashville,, Tennessee ;-86.778098;36.165688
Recovery;Justin Bieber;;4;0.515556;0.333111;129.887;0.072313;0.011445;0.704154;0.0;6.0;-4.8;0.241661;Stratford,, Canada;-80.983333;43.366667
Tattoo;Van Halen;;4;0.899622;0.175141;100.074;0.04655;0.012442;0.491971;7.9e-05;2.0;-3.226;0.525377;Pasadena,, CA;-118.298662;33.786594
Hold Tight;Justin Bieber;;4;0.623527;0.10007;119.62;0.196556;0.328362;0.657819;0.0;6.0;-5.931;0.51905;Stratford,, Canada;-80.983333;43.366667
Glad You Came;The Wanted;;4;0.962034;0.726404;126.997;0.454753;0.007769;0.541673;1.4e-05;0.0;-2.836;0.350922;London,, England,, GB;-0.12714;51.5063
All Over The Road;Easton Corbin;;4;0.383012;0.105043;100.042;0.040831;0.142757;0.620553;0.0;5.0;-19.167;0.588389;Trenton,, FL,, US;-82.8184;29.6151
Oh Love;Green Day;;4;0.773848;0.040136;171.782;0.107386;0.004898;0.422028;3e-06;8.0;-4.281;0.701934;Berkeley,, CA;-122.29673;37.860576
Everything Has Changed;Taylor Swift;Featuring Ed Sheeran;4;0.626659;0.327129;80.023;0.034429;0.296135;0.678137;8e-06;6.0;-5.424;0.663883;Reading,, PA;-75.940153;40.357242
No Church In The Wild;Jay Z  Kanye West;Featuring Frank Ocean;4;0.424421;0.210105;92.781;0.067055;0.242772;0.656175;0.024921;8.0;-19.191;0.630514;NA;0;0
Swimming Pools (Drank);Kendrick Lamar;;4;0.463592;0.080952;147.992;0.239642;0.004966;0.715801;9.5e-05;8.0;-6.003;0.214214;Compton,, CA;-118.240208;33.874815
Fireball;Pitbull;Featuring John Ryan;4;0.922078;0.112599;125.994;0.059268;0.127433;0.74029;7e-06;10.0;-7.997;0.801198;Miami,, FL,, US;-80.2374;25.729
Scream;Usher;;4;0.879717;0.262742;128.043;0.162256;0.00496;0.59797;1e-06;7.0;-6.328;0.540577;Atlanta,, Georgia ;-84.47405;33.844371
I Got A Car;George Strait;;4;0.627264;0.12162;138.399;0.032804;0.375147;0.596629;0.0;4.0;-7.369;0.456539;Poteet TX;-98.63756;29.059014
V.S.O.P.;K. Michelle;;4;0.74165;0.086498;83.92;0.180167;0.010802;0.671805;0.001057;1.0;-6.06;0.901256;Memphis,, TN;-89.990415;35.169255
Someone Else;Miley Cyrus;;4;0.769704;0.356477;134.106;0.097879;0.029434;0.65761;0.0;9.0;-7.143;0.356472;Nashville,, TN;-86.778098;36.165688
Rather Be;Clean Bandit;Featuring Jess Glynne;4;0.586084;0.463218;120.972;0.039477;0.153828;0.802495;2e-06;8.0;-7.356;0.624671;Cambridge,, UK;0.124862;52.2033051
Ai Se Eu Te Pego;Michel Telo;;4;0.530606;0.098211;96.065;0.035887;0.619664;0.665556;0.0;11.0;-7.749;0.905656;Medianeira,, Parana,, BR;-54.1276;-25.2886
These Walls;Kendrick Lamar;Featuring Bilal. Anna Wise &amp,; Thundercat;4;0.48681;0.228799;107.926;0.113401;0.113668;0.703718;3e-06;5.0;-5.536;0.386264;Compton,, CA;-118.240208;33.874815
Drank In My Cup;Kirko Bangz;;4;0.382458;0.077696;105.499;0.054708;0.040593;0.629348;2e-06;2.0;-13.387;0.039639;Houston,, TX,, US;-95.3698;29.7605
Achy Breaky 2;Buck 22;Featuring Billy Ray Cyrus;4;0.342009;0.0786;69.695;0.77426;0.923371;0.420038;0.015341;7.0;-17.635;0.636744;Beverly Hills,, California;-117.885359;35.187133
Shadow Days;John Mayer;;4;0.669192;0.216896;146.988;0.024725;0.003677;0.526096;0.000282;2.0;-6.685;0.277782;Bridgeport,, CT;-73.363661;41.308873
Carolina;Parmalee;;4;0.759715;0.111419;159.876;0.029863;0.011897;0.447741;0.0;10.0;-3.526;0.442535;Parmele,, NC;-77.31413;35.81655
Not A Bad Thing;Justin Timberlake;;4;0.696408;0.064581;85.999;0.066582;0.280053;0.590245;0.0;2.0;-6.506;0.390102;Memphis,, TN;-89.990415;35.169255
When She Says Baby;Jason Aldean;;4;0.754275;0.259715;113.056;0.037166;0.066686;0.677203;4.2e-05;0.0;-5.135;0.794059;Macon,, GA;-83.617554;32.804382
Amen (Meek Mill Version);Meek Mill;Featuring Drake;4;0.368934;0.080363;75.071;0.477324;0.081601;0.72239;0.0;10.0;-16.204;0.32212;Philadelphia,, PA,, US;-75.1624;39.9523
It Was Always You;Maroon 5;;4;0.754311;0.099525;103.976;0.043561;0.074968;0.610954;1e-06;11.0;-6.594;0.292266;Los Angeles,, CA;-118.248405;33.973951
Stay With Me;Sam Smith;;4;0.403693;0.110018;83.884;0.037281;0.473008;0.40144;0.000566;0.0;-7.031;0.080185;Bishops Stortford,, England;0.166667;51.866667
Gone\ Gone\ Gone;Phillip Phillips;;4;0.658714;0.579012;118.005;0.049311;0.138972;0.664964;0.0;6.0;-5.765;0.611802;albany,, ga;-84.176751;31.560674
Let It Go (Idina Menzel Version);Idina Menzel;;4;0.964741;0.123766;134.956;0.072925;0.00171;0.565464;0.164174;1.0;-6.72;0.282368;New York,, NY;-74.005973;40.714269
Blunt Blowin;Lil Wayne;;4;0.738041;0.223843;135.988;0.064889;0.00222;0.721121;0.0;2.0;-5.682;0.372611;New Orleans,, LA;-90.205801;29.949674
Habits (Stay High);Tove Lo;;4;0.807266;0.14316;128.006;0.037679;0.004122;0.679444;0.002593;10.0;-6.92;0.03903;stockholm,, sweden;18.05;59.3333333
Sweeter Than Fiction;Taylor Swift;;4;0.371375;0.116853;134.992;0.044586;0.001515;0.707807;0.001042;6.0;-15.481;0.68204;Reading,, PA;-75.940153;40.357242
Come Over;Kenny Chesney;;4;0.698458;0.074098;175.966;0.035537;0.114136;0.460746;4.4e-05;1.0;-7.446;0.488539;Corryton,, Tennessee;-83.78241;36.15369
Better Dig Two;The Band Perry;;4;0.700325;0.082217;155.787;0.050729;0.387327;0.630859;0.0;7.0;-5.222;0.63604;nashville,, tn;-86.778098;36.165688
You Make Me;Avicii;;4;0.653292;0.159255;125.075;0.064578;0.00106;0.569131;0.002358;6.0;-11.88;0.633404;Stockholm,, Stockholm,, SE;18.0624;59.3322
All The Way Home;Tamar Braxton;;4;0.303533;0.080243;108.011;0.041024;0.038479;0.696721;1.7e-05;5.0;-19.142;0.37318;Severn,, Maryland;-76.69253;39.1328
Amen;Edens Edge;;4;0.62292;0.144689;179.049;0.031089;0.32675;0.516852;3e-06;5.0;-5.482;0.521563;Russellville,, AR;-93.140877;35.279127
Thinking About You;Calvin Harris;Featuring Ayah Marar;4;0.891584;0.083021;127.99;0.050147;0.083884;0.637897;0.008217;8.0;-8.314;0.519557;Dumfries,, Scotland,, GB;-3.6093;55.0682
Counting Stars;OneRepublic;;4;0.331402;0.471911;124.231;0.044336;0.315342;0.649481;0.0;1.0;-16.454;0.49508;Colorado Springs,, CO;-104.857828;38.861469
That Way;Wale;Featuring Jeremih &amp,; Rick Ross;4;0.699645;0.090787;73.468;0.236097;0.039927;0.683108;0.0;6.0;-6.509;0.307476;Washington DC;-77.036366;38.895112
I Lived;OneRepublic;;4;0.834992;0.214935;119.967;0.053326;0.062305;0.585944;0.0;9.0;-5.84;0.320406;Colorado Springs,, CO;-104.857828;38.861469
No Flex Zone!!;Rae Sremmurd;;4;0.530229;0.137507;120.068;0.173226;0.011939;0.938724;0.0;1.0;-5.561;0.305748;Tupelo,, Mississippi;-88.775002;34.221257
My Eyes;Blake Shelton;Featuring Gwen Sebastian;4;0.578602;0.113394;145.842;0.036251;0.456692;0.63396;0.0;4.0;-7.6;0.607404;Nashville,, TN;-86.778098;36.165688
Nothing Like Us;Justin Bieber;;4;0.156398;0.16047;166.877;0.048618;0.986946;0.42486;5.1e-05;0.0;-14.365;0.547767;Stratford,, Canada;-80.983333;43.366667
Too Much;Drake;;4;0.55914;0.128065;70.484;0.534015;0.182255;0.724171;0.0;6.0;-6.111;0.113442;Toronto,, Canada;-79.416667;43.666667
It Girl;Jason Derulo;;4;0.431739;0.114747;183.671;0.341581;0.242196;0.603715;0.0;1.0;-12.64;0.332886;Miami,, FL;-80.1532;25.779808
Sleeping With A Friend;Neon Trees;;4;0.880949;0.32395;107.044;0.035575;0.002282;0.580515;2e-05;2.0;-4.293;0.502143;Provo,, UT;-111.695558;40.235053
Summer Nights;Glee Cast;;4;0.671596;0.193194;124.189;0.053203;0.534926;0.781694;0.0;2.0;-5.007;0.519166;USA;-97.0;38.0
The Big Bang;Katy Tiz;;4;0.929051;0.110873;96.003;0.043271;0.014297;0.797491;0.0;0.0;-2.959;0.744048;London,, UK;-0.1278328;51.5072648
Two Black Cadillacs;Carrie Underwood;;3;0.235661;0.120548;78.446;0.042326;0.990705;0.294349;0.94438;3.0;-18.121;0.033627;Checotah,, OK,, US;-95.5224;35.47
Only Time;Enya;;7;0.171707;0.111857;83.676;0.045965;0.969776;0.253257;0.518577;3.0;-18.935;0.292803;Gweedore,, Ireland;-8.2319444;55.0502778
18;One Direction;;4;0.582387;0.118539;124.038;0.031328;0.220193;0.681026;0.0;6.0;-7.76;0.219129;London,, England,, GB;-0.12714;51.5063
Scary Monsters And Nice Sprites;Skrillex;;4;0.889967;0.132853;140.055;0.298515;0.132937;0.585459;0.56334;7.0;-8.154;0.596474;Los Angeles,, CA,, US;-118.245;34.0535
The Body;Wale;Featuring Jeremih;4;0.542426;0.238752;109.399;0.075954;0.077359;0.493298;0.0;9.0;-8.016;0.164598;Washington DC;-77.036366;38.895112
Whiskey In My Water;Tyler Farr;;4;0.864846;0.21324;153.952;0.04198;0.224225;0.530103;0.0;7.0;-5.696;0.571498;Nashville,, TN;-86.778098;36.165688
Who I Am With You;Chris Young;;4;0.617036;0.262131;150.191;0.030114;0.10235;0.46598;1e-05;0.0;-6.404;0.490638;Murfreesboro,, TN;-86.372158;35.762951
International Love;Pitbull;Featuring Chris Brown;4;0.837901;0.599818;124.078;0.068094;0.004069;0.622933;0.0;8.0;-5.967;0.651838;Miami,, FL,, US;-80.2374;25.729
It Will Rain;Bruno Mars;;4;0.47327;0.08363;76.493;0.045284;0.340772;0.553986;0.0;2.0;-19.104;0.467949;Los Angeles,, CA ;-118.248405;33.973951
Underneath The Tree;Kelly Clarkson;;4;0.977789;0.29121;159.878;0.211142;6.5e-05;0.472357;3.2e-05;5.0;-4.207;0.547473;Burleson,, TX;-97.264359;32.492683
Anything Could Happen;Ellie Goulding;;4;0.444068;0.167758;105.06;0.041334;0.529543;0.720337;0.0;0.0;-16.488;0.606694;Lyonshall,, England;-2.9799155;52.200524
Take Your Time;Sam Hunt;;4;0.722576;0.211935;157.998;0.045288;0.102412;0.553344;0.0;11.0;-5.607;0.462115;Cedartown,, GA,, US;-85.2566;34.0145
Animals;Martin Garrix;;4;0.79409;0.610661;127.059;0.036416;0.003271;0.613558;0.096876;1.0;-8.348;0.036131;Amsterdam,, Netherlands;4.9166667;52.35
Try (Colbie Caillat Version);Colbie Caillat;;4;0.363786;0.118362;140.024;0.029818;0.818886;0.609479;0.0;1.0;-10.122;0.57101;Malibu,, CA;-118.707992;34.039034
Oceans;Jay Z;Featuring Frank Ocean;5;0.94739;0.391631;119.401;0.324067;0.226483;0.586405;0.0;11.0;-5.28;0.50535;Brooklyn,, NY;-73.989319;40.694481
Blame;Calvin Harris;Featuring John Newman;4;0.823335;0.554369;127.995;0.057841;0.029816;0.636889;0.005111;0.0;-5.43;0.369038;Dumfries,, Scotland,, GB;-3.6093;55.0682
Every Storm (Runs Out Of Rain);Gary Allan;;4;0.720734;0.252374;107.012;0.033455;0.047201;0.530757;8e-06;0.0;-7.059;0.330852;La Mirada,, CA,, US;-118.012;33.9071
Adrenalina;Wisin;Featuring Jennifer Lopez &amp,; Ricky Martin;4;0.944338;0.092716;124.987;0.144929;0.085613;0.685263;0.0;5.0;-2.793;0.758076;Cayey,, Cayey,, PR;-66.1696;18.1145
Two Night Town;Jason Aldean;;4;0.41068;0.34733;143.598;0.036327;0.657141;0.379003;0.002963;4.0;-7.365;0.399749;Macon,, GA;-83.617554;32.804382
Bad Day;Justin Bieber;;4;0.489879;0.219138;81.788;0.052796;0.024763;0.530725;0.0;6.0;-6.893;0.326968;Stratford,, Canada;-80.983333;43.366667
Geronimo;Sheppard;;4;0.511103;0.133292;142.016;0.053543;0.511913;0.67508;0.064923;7.0;-16.115;0.605569;Brisbane,, Queensland,, Australia ;133.0;-27.0
Somewhere Over The Rainbow;Nicholas David;;4;0.723599;0.154593;142.111;0.049123;0.077268;0.287155;2.4e-05;0.0;-5.003;0.182446;Eagan Minnesota;-93.153453;44.847155
Lego House;Ed Sheeran;;4;0.685701;0.119577;159.607;0.091904;0.568372;0.588854;0.0;11.0;-6.763;0.569572;Suffolk,, England;1.0;52.166667
Brighter Than The Sun;Colbie Caillat;;4;0.792393;0.151156;96.054;0.034929;0.008785;0.633086;1e-06;9.0;-6.079;0.567903;Malibu,, CA;-118.707992;34.039034
Heartbeat;The Fray;;4;0.822207;0.167062;144.394;0.03455;0.000436;0.450061;9e-05;9.0;-5.074;0.292082;Denver,, CO;-105.069027;39.743291
The Scientist;Glee Cast;;4;0.492987;0.210715;148.955;0.026784;0.490821;0.495211;0.0;2.0;-6.107;0.224533;USA;-97.0;38.0
Domino;Jessie J;;4;0.481935;0.139227;128.221;0.056295;0.007732;0.743388;1e-06;7.0;-7.099;0.728149;Chadwell Heath,, London,, England,, GB;0.14148;51.5734
Strip;Chris Brown;Featuring Kevin McCall;4;0.720158;0.362705;92.225;0.21855;0.002441;0.483325;0.0;1.0;-6.414;0.595095;Tappahannock,, VA;-76.947547;37.916613
Love Runs Out;OneRepublic;;4;0.903234;0.182752;120.034;0.060814;0.170727;0.714525;0.0;7.0;-5.802;0.72545;Colorado Springs,, CO;-104.857828;38.861469
Yellow Flicker Beat;Lorde;;4;0.35705;0.185797;94.975;0.033364;0.048907;0.590187;0.000328;1.0;-18.339;0.097402;Auckland,, New Zealand;174.766667;-36.866667
I Knew You Were Trouble;Michelle Chamuel;;4;0.591657;0.10596;77.026;0.042254;0.047966;0.593854;1e-06;1.0;-5.023;0.722784;Wellesley,, MA;-71.27875;42.300596
Demons;Imagine Dragons;;4;0.730505;0.311512;90.026;0.036912;0.144142;0.486108;0.000262;3.0;-2.951;0.373661;Las Vegas,, NV,, US;-115.14;36.1719
Pills N Potions;Nicki Minaj;;4;0.58011;0.050421;82.323;0.152868;0.009163;0.389994;6e-06;7.0;-8.035;0.230746;New York,, NY;-74.005973;40.714269
Come Get It Bae (Pharrell Williams Version);Pharrell Williams;;4;0.759545;0.131026;120.183;0.088016;0.463288;0.938746;0.00281;0.0;-6.609;0.883656;Virginia Beach,, Virginia;-76.12036;36.844004
24 Hours;TeeFLii;Featuring 2 Chainz;4;0.706503;0.150139;99.973;0.044942;0.016225;0.826034;1e-06;1.0;-6.802;0.377717;los angeles,, ca;-118.248405;33.973951
Studio;ScHoolboy Q;Featuring BJ The Chicago Kid;3;0.568215;0.049253;133.948;0.04635;0.052277;0.687342;0.0;8.0;-8.632;0.502061;Los Angeles,, CA,, US;-118.245;34.0535
Thriller;Michael Jackson;;4;0.695543;0.120274;117.959;0.469834;0.551782;0.520574;0.000799;11.0;-13.547;0.542959;Gary,, IN;-87.319937;41.590686
Va Va Voom;Nicki Minaj;;3;0.441825;0.286918;91.54;0.086144;0.119348;0.362933;0.002292;0.0;-16.149;0.656073;New York,, NY;-74.005973;40.714269
Princess Of China;Coldplay;Featuring Rihanna;4;0.704124;0.180495;84.844;0.036497;0.003143;0.273737;0.001892;9.0;-6.151;0.388819;London,, England;-0.1278328;51.5072648
Little Toy Guns;Carrie Underwood;;4;0.868409;0.091949;161.886;0.060344;0.004075;0.433944;2e-06;7.0;-1.208;0.199641;Checotah,, OK,, US;-95.5224;35.47
All Around The World;Justin Bieber;Featuring Ludacris;4;0.750334;0.224114;127.981;0.184062;0.026202;0.691212;2e-06;3.0;-5.733;0.768823;Stratford,, Canada;-80.983333;43.366667
Bandz A Make Her Dance;Juicy J;Featuring Lil Wayne &amp,; 2 Chainz;4;0.747331;0.125094;130.988;0.283643;0.002839;0.869477;0.0;2.0;-5.505;0.574899;Memphis,, TN,, US;-90.0489;35.1497
Angel;Jacquie Lee;;3;0.504738;0.144507;141.276;0.02845;0.174591;0.302877;2.8e-05;3.0;-5.216;0.196143;Colts Neck,, New Jersey ;-74.160911;40.302848
Truck Yeah;Tim McGraw;;4;0.912919;0.112101;97.996;0.034927;0.089471;0.614651;0.0;7.0;-4.427;0.796089;Delhi,, LA;-91.49317;32.45764
I Have Nothing;Tessanne Chin;;3;0.638731;0.096376;154.068;0.032965;0.224369;0.407589;0.0;0.0;-3.512;0.182796;Kingston,, Jamaica;-76.8;18.0
Sweet Love;Chris Brown;;4;0.809997;0.166499;139.916;0.052864;0.024216;0.562809;0.0;1.0;-5.082;0.59554;Tappahannock,, VA;-76.947547;37.916613
Super Bass;Nicki Minaj;;4;0.691006;0.361228;126.983;0.23965;0.062354;0.763572;0.01566;11.0;-8.738;0.652616;New York,, NY;-74.005973;40.714269
I Want You To Know;Zedd;Featuring Selena Gomez;4;0.883912;0.224115;129.965;0.064763;0.006746;0.568208;7e-06;9.0;-2.187;0.355217;Kaiserslautern,, Germany;7.75;49.45
Get Your Shine On;Florida Georgia Line;;4;0.927645;0.343621;96.988;0.036241;0.002195;0.501525;2e-06;0.0;-4.467;0.634749;Nashville,, TN;-86.778098;36.165688
Did It For The Girl;Greg Bates;;4;0.723975;0.329306;101.987;0.023751;0.024166;0.663183;1.2e-05;5.0;-5.113;0.681988;Brentwood,, Tennessee,, U.S. ;-86.7827778;36.0330556
New Slaves;Kanye West;;4;0.596727;0.095647;148.678;0.071156;0.147914;0.489318;1.4e-05;1.0;-4.348;0.326927;Chicago,, IL;-87.658544;41.902042
Drive By;Train;;4;0.836883;0.076853;122.048;0.032297;0.001066;0.767132;1.1e-05;1.0;-3.115;0.721017;San Francisco,, CA;-122.727802;37.784827
Poetic Justice;Kendrick Lamar;Featuring Drake;4;0.487763;0.094158;136.06;0.340958;0.086105;0.789022;0.0;2.0;-12.456;0.743282;Compton,, CA;-118.240208;33.874815
Without You;David Guetta;Featuring Usher;4;0.613701;0.157308;127.884;0.028515;0.226713;0.608289;4e-06;2.0;-3.727;0.428135;Paris,, France ;2.333333;48.866667
Something In The Water;Carrie Underwood;;4;0.858494;0.083315;139.777;0.061046;0.020962;0.454267;0.0;7.0;-4.086;0.083311;Checotah,, OK,, US;-95.5224;35.47
Shake It Out (Glee Cast Version);Glee Cast;;4;0.38685;0.112459;107.115;0.027471;0.830286;0.6983;0.0;5.0;-5.484;0.338584;USA;-97.0;38.0
Want To Want Me;Jason Derulo;;4;0.679879;0.108751;114.025;0.062858;0.00906;0.775017;0.0;0.0;-5.508;0.636422;Miami,, FL;-80.1532;25.779808
Team;Lorde;;4;0.620412;0.101067;99.984;0.093719;0.167274;0.688761;0.0;6.0;-6.761;0.477785;Auckland,, New Zealand;174.766667;-36.866667
Oath;Cher Lloyd;Featuring Becky G;4;0.860484;0.080884;85.015;0.189331;0.027965;0.332115;0.0;5.0;-3.697;0.753712;Malvern,, England;-2.3268573;52.1115443
Anything Goes;Florida Georgia Line;;4;0.976648;0.35205;154.046;0.046349;0.001962;0.463758;0.0;0.0;-3.792;0.765954;Nashville,, TN;-86.778098;36.165688
Round Here;Florida Georgia Line;;4;0.95582;0.229891;141.956;0.037475;0.004608;0.517203;3e-06;1.0;-2.988;0.885438;Nashville,, TN;-86.778098;36.165688
A Guy Walks Into A Bar;Tyler Farr;;4;0.745014;0.110683;147.899;0.037896;0.097601;0.427461;0.0;0.0;-4.849;0.449316;Nashville,, TN;-86.778098;36.165688
23 (Mike WiLL Made-It Version);Mike WiLL Made-It;Featuring Miley Cyrus\ Wiz Khalifa &amp,; Juicy J;4;0.608931;0.128815;140.02;0.056403;0.000349;0.862984;4e-06;9.0;-5.231;0.317923;atlanta,, georgia;-84.47405;33.844371
This Ole Boy;Craig Morgan;;4;0.796557;0.038113;113.732;0.06402;0.304211;0.442701;2e-06;11.0;-6.132;0.802439;Kingston Springs,, TN;-87.11501;36.102
I Can Only Imagine;David Guetta;Featuring Chris Brown &amp,; Lil Wayne;4;0.956656;0.30946;127.94;0.065428;0.032424;0.604573;0.0;9.0;-1.722;0.227634;Paris,, France ;2.333333;48.866667
Tom Ford;Jay Z;;4;0.702742;0.559921;145.017;0.31313;0.062482;0.854353;1.2e-05;8.0;-6.203;0.560459;Brooklyn,, NY;-73.989319;40.694481
Stupid Hoe;Nicki Minaj;;4;0.824107;0.249167;99.991;0.278567;0.042594;0.882865;0.224623;7.0;-5.949;0.715938;New York,, NY;-74.005973;40.714269
State Of Grace;Taylor Swift;;4;0.815762;0.090258;129.956;0.033194;0.000195;0.596193;6.4e-05;4.0;-6.1;0.379377;Reading,, PA;-75.940153;40.357242
You The Boss;Rick Ross;Featuring Nicki Minaj;4;0.75333;0.353865;145.77;0.231832;0.005909;0.536208;0.0;4.0;-7.618;0.449772;Carol City,, FL,, US;-80.2462;25.941
Somebody That I Used To Know (Glee Cast Version);Glee Cast;;4;0.465884;0.142946;128.925;0.03723;0.556862;0.833365;9e-06;8.0;-7.725;0.801977;USA;-97.0;38.0
Stolen Dance;Milky Chance;;4;0.607903;0.11959;113.98;0.033427;0.256275;0.867066;0.000111;11.0;-8.185;0.768265;Kassel,, Germany;9.5;51.3166667
Trumpets;Jason Derulo;;4;0.670704;0.278398;169.986;0.369377;0.448149;0.531818;0.0;0.0;-6.671;0.77779;Miami,, FL;-80.1532;25.779808
Greatest Love Of All;Whitney Houston;;4;0.590832;0.980642;112.918;0.067193;0.621212;0.311296;0.0;8.0;-8.788;0.261494;Newark,, NJ;-74.22509;40.736101
Stupid Boy;Cassadee Pope;;4;0.399677;0.299073;70.08;0.036852;0.872014;0.326651;0.0;10.0;-4.921;0.308835;West Palm Beach,, FL;-80.070249;26.715844
No Worries;Lil Wayne;Featuring Detail;4;0.609295;0.098863;128.013;0.198673;0.114608;0.843862;0.0;5.0;-5.477;0.763643;New Orleans,, LA;-90.205801;29.949674
This Is Gospel;Panic! At The Disco;;4;0.906101;0.102237;156.073;0.067008;0.001583;0.574704;1e-06;7.0;-4.898;0.64841;Las Vegas,, NV,, US;-115.14;36.1719
Blank Space (I Prevail Version);I Prevail;;4;0.862682;0.143804;194.073;0.094122;0.003017;0.437172;0.0;11.0;-5.28;0.225932;NA;0;0
Ten Feet Tall;Afrojack;Featuring Wrabel;4;0.789869;0.372661;128.093;0.079765;0.13562;0.519393;0.0;0.0;-5.314;0.320099;Spijkenisse,, Netherlands;4.3333333;51.85
Hold On;Alabama Shakes;;4;0.629659;0.092016;88.195;0.030909;0.195324;0.567713;0.447731;0.0;-6.591;0.536708;Athens,, AL,, US;-86.9722;34.8029
Sexy And I Know It;LMFAO;;4;0.497094;0.113231;132.658;0.353749;0.12247;0.692342;0.0;7.0;-16.315;0.826079;Los Angeles,, CA;-118.248405;33.973951
Waves;Mr. Probz;;4;0.51087;0.098464;119.998;0.037739;0.020914;0.837132;0.000603;5.0;-9.533;0.469066;Zoetermeer,, Netherlands;4.5;52.05
The Champ;Nelly;;4;0.88146;0.085471;167.986;0.07963;0.195802;0.546168;0.0;6.0;-4.703;0.769659;Saint Louis,, MO ;-90.19231;38.631501
Strange Clouds;B.o.B;Featuring Lil Wayne;4;0.65568;0.131565;147.88;0.228788;0.068921;0.686191;0.0;4.0;-6.708;0.833074;Decatur,, GA;-84.291723;33.772554
Body Party;Ciara;;4;0.798444;0.343264;146.206;0.098707;0.007147;0.643535;2.4e-05;11.0;-3.958;0.575052;Atlanta,, Georgia;-84.47405;33.844371
Turn Up The Music;Chris Brown;;4;0.789568;0.358707;129.908;0.125932;0.000229;0.562496;8e-06;1.0;-7.696;0.655449;Tappahannock,, VA;-76.947547;37.916613
Moves Like Jagger;Maroon 5;Featuring Christina Aguilera;4;0.685005;0.421017;128.014;0.051981;0.06827;0.755049;0.0;11.0;-5.462;0.525625;Los Angeles,, CA;-118.248405;33.973951
Touchin\ Lovin;Trey Songz;Featuring Nicki Minaj;5;0.483655;0.212113;67.186;0.09651;0.103495;0.629845;1.3e-05;11.0;-7.952;0.390095;Petersburg,, VA;-77.335396;37.235551
Maybe It Was Memphis;Danielle Bradbery;;4;0.74261;0.081508;147.988;0.034338;0.081013;0.463661;3.4e-05;9.0;-4.32;0.387178;Cypress,, TX;-95.434241;29.83399
Act Right;Yo Gotti;Featuring Jeezy &amp,; YG;4;0.617018;0.06506;97.996;0.150124;0.162301;0.886369;0.0;8.0;-6.7;0.59728;Memphis,, TN;-89.990415;35.169255
Bridge Over Troubled Water;Tessanne Chin;;3;0.322871;0.198874;81.485;0.032517;0.884418;0.21775;0.0;7.0;-8.717;0.324325;Kingston,, Jamaica;-76.8;18.0
Wild Ones;Flo Rida;Featuring Sia;4;0.878416;0.241269;127.056;0.055212;0.107239;0.614956;0.0;5.0;-3.862;0.408916;Miami,, FL,, US;-80.2374;25.729
Work Out;J. Cole;;0;0.523554;0.473277;0.0;0;0.471543;0;0.000181;10.0;-6.069;0;Fayetteville,, NC,, US;-78.8776;35.0545
Hideaway;Kiesza;;4;0.476128;0.126777;124.117;0.111681;0.074318;0.843693;0.002023;0.0;-14.437;0.218256;Calgary,, Alberta,, CA;-114.063;51.0452
Just Keep Breathing;WE the Kings;;4;0.467284;0.097585;110.992;0.029547;0.805293;0.536286;0.0;6.0;-7.608;0.330215;Bradenton,, FL,, US;-82.5781;27.4955
All Day;Kanye West;Featuring Theophilus London\ Allan Kingdom &amp,; Paul McCartney;4;0.650603;0.210508;122.985;0.111161;0.073937;0.860943;0.0;9.0;-4.718;0.407461;Chicago,, IL;-87.658544;41.902042
Bangarang;Skrillex;Featuring Sirah;4;0.728367;0.84481;112.328;0.307629;0.00975;0.691151;2.2e-05;7.0;-14.511;0.652412;Los Angeles,, CA,, US;-118.245;34.0535
Feel This Moment;Pitbull;Featuring Christina Aguilera;4;0.906787;0.368157;132.005;0.055011;0.007923;0.753261;1e-06;7.0;-3.646;0.884647;Miami,, FL,, US;-80.2374;25.729
Birthday Cake;Rihanna;Featuring Chris Brown;4;0.515258;0.39223;80.012;0.122072;0.194652;0.679719;0.0;10.0;-12.087;0.373677;Saint Michael,, Barbados;-59.5333;13.1667
Roller Coaster;Justin Bieber;;4;0.866292;0.203307;97.968;0.074034;0.016794;0.702724;0.0;5.0;-4.087;0.548001;Stratford,, Canada;-80.983333;43.366667
This Is How We Roll;Florida Georgia Line;Featuring Luke Bryan;4;0.930143;0.403909;132.083;0.036161;0.022592;0.557876;0.0;8.0;-2.974;0.740831;Nashville,, TN;-86.778098;36.165688
Follow Your Arrow;Kacey Musgraves;;4;0.470872;0.368793;98.02;0.033212;0.434257;0.620997;0.0;5.0;-13.289;0.629849;Golden,, TX;-95.407675;32.777228
Perfume;Britney Spears;;4;0.530659;0.222045;80.115;0.054927;0.522094;0.548158;0.0;3.0;-7.526;0.3069;Kentwood,, LA;-90.428043;30.814466
Love On Top;Beyonce;;4;0.748353;0.604015;94.1;0.088664;0.084932;0.652171;0.0;0.0;-5.242;0.647909;Houston,, TX;-95.309789;29.813142
Brave;Sara Bareilles;;4;0.818785;0.04209;184.914;0.051511;0.004726;0.562056;2.1e-05;10.0;-3.386;0.739727;Eureka,, CA,, US;-124.16;40.8032
Live It Up;Jennifer Lopez;Featuring Pitbull;4;0.402399;0.310802;130.733;0.158713;0.006873;0.672319;2e-06;11.0;-17.444;0.75403;New York,, N;-74.9384;42.1497
Give Me Everything;Pitbull;Featuring Ne-Yo\ Afrojack &amp,; Nayer;4;0.882618;0.217873;129.947;0.162424;0.302816;0.658061;0.0;8.0;-6.064;0.346975;Miami,, FL,, US;-80.2374;25.729
Hey Mama;David Guetta;Featuring Nicki Minaj &amp,; Afrojack;4;0.355249;0.376376;87.593;0.122254;0.260468;0.541956;0.0;11.0;-18.69;0.561358;Paris,, France ;2.333333;48.866667
Ours;Taylor Swift;;4;0.565233;0.088991;159.834;0.028539;0.55718;0.614359;0.0;0.0;-7.249;0.216603;Reading,, PA;-75.940153;40.357242
Young Girls;Bruno Mars;;4;0.743194;0.14942;125.959;0.031774;0.487003;0.554974;2e-06;6.0;-4.911;0.558674;Los Angeles,, CA ;-118.248405;33.973951
Bully;Shinedown;;4;0.966105;0.138138;77.018;0.069037;0.000111;0.518624;0.0;6.0;-2.369;0.454745;Jacksonville,, FL;-81.6558333;30.3319444
Hope You Get Lonely Tonight;Cole Swindell;;4;0.761963;0.177207;151.91;0.034237;0.101026;0.451082;0.0;10.0;-5.543;0.384941;Bronwood,, GA;-84.343163;31.824017
Pound Cake / Paris Morton Music 2;Drake;Featuring Jay Z;4;0.748851;0.113829;164.137;0.54872;0.135099;0.516551;1.6e-05;2.0;-6.767;0.274046;Toronto,, Canada;-79.416667;43.666667
My Songs Know What You Did In The Dark (Light Em Up);Fall Out Boy;;4;0.83701;0.776925;151.928;0.054039;0.013094;0.407287;0.0;2.0;-11.734;0.377658;Wilmette,, IL,, US;-87.7077;42.0756
Unconditionally;Katy Perry;;4;0.863783;0.24996;128.509;0.075962;0.02915;0.563486;0.0;9.0;-6.049;0.436294;Los Angeles,, CA;-118.248405;33.973951
Partition;Beyonce;;4;0.438762;0.309754;87.953;0.290611;0.027537;0.446825;0.067853;11.0;-11.522;0.171531;Houston,, TX;-95.309789;29.813142
I Cry;Flo Rida;;4;0.467452;0.388067;128.593;0.048584;0.013667;0.66072;5e-06;7.0;-18.093;0.749788;Miami,, FL,, US;-80.2374;25.729
Turn Me On;David Guetta;Featuring Nicki Minaj;4;0.884992;0.178282;127.974;0.08703;0.006996;0.784675;0.001279;8.0;-1.924;0.572127;Paris,, France ;2.333333;48.866667
Blow Me (One Last Kiss);P!nk;;4;0.911959;0.207474;113.975;0.051523;3e-05;0.544663;0.0;7.0;-3.174;0.613846;Abington,, PA;-75.114767;40.123805
First Kiss;Kid Rock;;4;0.581764;0.109741;131.951;0.033314;0.004258;0.602263;0.0;4.0;-13.666;0.699932;Detroit,, MI;-83.060184;42.347021
Gonna Know We Were Here;Jason Aldean;;4;0.902588;0.89069;173.924;0.181281;0.037359;0.44935;0.0;9.0;-5.512;0.551872;Macon,, GA;-83.617554;32.804382
The Monster;Eminem;Featuring Rihanna;4;0.58358;0.085115;110.035;0.274634;0.068182;0.718454;0.0;9.0;-14.204;0.582503;detroit,, MI;-83.060184;42.347021
West Coast;Lana Del Rey;;4;0.268164;0.140297;98.525;0.044397;0.195143;0.371251;0.256378;6.0;-20.792;0.498004;Lake Placid,, NY,, US;-73.9827;44.2821
Best Mistake;Ariana Grande;Featuring Big Sean;4;0.578939;0.111686;143.941;0.484132;0.529945;0.634226;0.0;6.0;-6.999;0.207189;Boca Raton,, FL;-80.10717;26.375954
Ho Hey;The Lumineers;;4;0.38679;0.106283;156.833;0.033248;0.779383;0.607411;2e-06;0.0;-8.389;0.449959;Colorado,, US;-105.551;38.9979
About The Money;T.I.;Featuring Young Thug;4;0.651968;0.086986;101.977;0.250509;0.024618;0.815177;0.0;9.0;-7.099;0.550741;Atlanta,, GA;-84.47405;33.844371
Sexy People (The Fiat Song);Arianna;Featuring Pitbull;4;0.956454;0.427071;128.06;0.053375;0.044795;0.709885;1e-05;9.0;-4.038;0.702391;California,, US;-119.27;37.2719
Hotel;Kid Ink;Featuring Chris Brown;4;0.584481;0.212644;102.872;0.17415;0.003871;0.768836;0.0;10.0;-7.02;0.71406;Los Angeles,, CA,, US;-118.245;34.0535
Birthday;Katy Perry;;4;0.704681;0.127878;126.04;0.072189;0.073859;0.711586;2e-06;11.0;-4.852;0.813989;Los Angeles,, CA;-118.248405;33.973951
Home (Phillip Phillips Version);Phillip Phillips;;4;0.609484;0.059935;121.022;0.037496;0.023553;0.589433;2e-06;0.0;-12.722;0.29496;albany,, ga;-84.176751;31.560674
How Will I Know (Glee Cast Version);Glee Cast;;3;0.173627;0.109665;165.5;0.163256;0.938068;0.51284;0.0;11.0;-8.938;0.420671;USA;-97.0;38.0
Parking Lot Party;Lee Brice;;4;0.841179;0.118065;85.989;0.037736;0.002827;0.660255;0.0;6.0;-5.764;0.93085;Sumter,, SC;-80.354238;33.913678
Runaway Baby;Bruno Mars;;4;0.664487;0.099651;163.87;0.042103;0.239627;0.651415;1e-06;10.0;-6.668;0.877383;Los Angeles,, CA ;-118.248405;33.973951
Get It Started;Pitbull;Featuring Shakira;4;0.847465;0.531976;128.981;0.174033;0.067816;0.686943;0.0;1.0;-3.352;0.591117;Miami,, FL,, US;-80.2374;25.729
Birthday Song;2 Chainz;Featuring Kanye West;4;0.544694;0.167581;140.021;0.053964;0.052202;0.750013;0.0;1.0;-3.93;0.169222;College Park,, GA;-84.449373;33.653443
Best Song Ever;One Direction;;4;0.78555;0.063432;118.56;0.050773;0.016482;0.572488;0.0;1.0;-6.658;0.533436;London,, England,, GB;-0.12714;51.5063
Stay Schemin;Rick Ross;Featuring Drake &amp,; French Montana;4;0.738552;0.114998;162.165;0.235799;0.066143;0.44811;0.0;7.0;-4.078;0.302032;Carol City,, FL,, US;-80.2462;25.941
Buzzkill;Luke Bryan;;4;0.7762;0.105582;144.989;0.034106;0.030011;0.521564;0.0;6.0;-4.784;0.499462;Nashville,, Tennessee ;-86.778098;36.165688
Wrecking Ball;Miley Cyrus;;4;0.252133;0.096628;119.75;0.054549;0.320161;0.520518;0.0;5.0;-15.694;0.179288;Nashville,, TN;-86.778098;36.165688
Give Your Heart A Break;Demi Lovato;;4;0.90233;0.262594;129.984;0.232335;0.000929;0.591032;0.00085;6.0;-5.005;0.476938;Dallas,, TX;-96.790329;32.781179
Post To Be;Omarion;Featuring Chris Brown &amp,; Jhene Aiko;4;0.67572;0.20777;97.448;0.043189;0.069705;0.733264;0.0;10.0;-5.655;0.717152;Inglewood,, CA ;-118.358654;33.956526
Red Lights;Tiesto;;4;0.66374;0.046366;126.994;0.063776;0.000684;0.542033;0.0;3.0;-5.506;0.415774;Breda,, Netherlands;4.8;51.5666667
Banjo;Rascal Flatts;;4;0.853568;0.154269;101.991;0.038477;0.020612;0.627583;0.0;2.0;-6.336;0.756449;Columbus,, OH;-83.013402;40.100924
Take Me To Church;Hozier;;3;0.54853;0.154189;128.905;0.048309;0.237798;0.548787;0.0;7.0;-7.313;0.230468;Bray,, Ireland;-6.0983333;53.2027778
Survival;Eminem;;4;0.891589;0.126447;176.129;0.225486;0.0044;0.448839;0.0;2.0;-3.002;0.423702;detroit,, MI;-83.060184;42.347021
Pontoon;Little Big Town;;4;0.813989;0.150378;95.992;0.025734;0.416561;0.726031;2e-06;4.0;-5.835;0.874738;Homewood,, AL;-86.800823;33.471773
Turn On The Lights;Future;;4;0.668352;0.226935;130.882;0.176747;0.016677;0.558001;0.0;6.0;-8.013;0.59086;Atlanta,, GA,, US;-84.3911;33.7483
I Can Take It From There;Chris Young;;4;0.808652;0.147908;113.959;0.030867;0.139983;0.685982;0.0;3.0;-5.955;0.860509;Murfreesboro,, TN;-86.372158;35.762951
Shades Of Cool;Lana Del Rey;;3;0.467342;0.257136;137.567;0.03011;0.575988;0.261489;0.022342;2.0;-6.991;0.083468;Lake Placid,, NY,, US;-73.9827;44.2821
Good Girls;5 Seconds Of Summer;;4;0.923233;0.118385;141.039;0.075133;0.014158;0.534356;0.0;4.0;-5.173;0.558382;Sydney,, Australia ;151.216667;-33.883333
Oceans (Where Feet May Fail);Hillsong UNITED;;4;0.536092;0.181645;130.052;0.031719;0.458087;0.255998;8.8e-05;2.0;-5.568;0.10062;Sydney,, New South Wales,, AU;151.207;-33.8696
Take Me Home;Cash Cash;Featuring Bebe Rexha;4;0.874808;0.348548;125.13;0.195649;0.181731;0.556042;0.000111;7.0;-4.101;0.396636;Roseland,, NJ,, US;-74.2914;40.8217
Oh Sweet Lorraine;Green Shoe Studio;Featuring Jacob Colgan &amp,; Fred Stobaugh;4;0.165262;0.130679;117.018;0.073074;0.983249;0.602797;0.879554;7.0;-14.61;0.267519;NA;0;0
I Will Never Let You Down;Rita Ora;;4;0.77486;0.069468;127.932;0.113886;0.002881;0.642512;2e-06;4.0;-5.215;0.572743;London,, England;-0.1278328;51.5072648
Yeah;Joe Nichols;;4;0.8433;0.193605;165.713;0.053123;0.006468;0.414147;1.5e-05;11.0;-4.638;0.596321;Rogers,, AR;-93.978383;36.320391
Fancy;Iggy Azalea;Featuring Charli XCX;4;0.686218;0.13472;94.465;0.166079;0.122711;0.871538;0.0;0.0;-6.443;0.435112;Mullumbimby,, Australia;153.5;-28.55
Alone With You;Jake Owen;;4;0.59933;0.111289;109.003;0.03348;0.276824;0.6214;6e-06;9.0;-9.924;0.377784;Vero Beach,, FL;-80.40294;27.638005
American Girl;Bonnie McKee;;4;0.808275;0.642405;127.953;0.034707;0.010677;0.657238;4e-05;0.0;-4.861;0.643651;Hollywood,, Los Angeles,, CA,, US;-118.337;34.1016
Levitate;Hadouken!;;4;0.735745;0.675279;128.032;0.069305;0.00347;0.4921;0.0;4.0;-8.58;0.132742;London United Kingdom;-0.1278328;51.5072648
Heart Attack;Trey Songz;;4;0.851443;0.216021;155.089;0.183738;0.053478;0.595186;0.0;7.0;-5.556;0.393678;Petersburg,, VA;-77.335396;37.235551
Bad B*tch;French Montana;Featuring Jeremih;4;0.639184;0.716291;99.963;0.132629;0.157837;0.705532;0.0;4.0;-7.756;0.52407;New York,, NY;-74.005973;40.714269
Everybody Talks;Neon Trees;;4;0.91228;0.278833;154.951;0.060826;0.007758;0.466669;0.0;8.0;-5.512;0.752858;Provo,, UT;-111.695558;40.235053
Vivir Mi Vida;Marc Anthony;;4;0.879294;0.895977;107.962;0.047959;0.296262;0.511184;7.9e-05;8.0;-11.253;0.682725;New York,, NY;-74.005973;40.714269
Drunk On A Plane;Dierks Bentley;;4;0.736457;0.250098;205.858;0.032938;0.003819;0.436234;1e-05;9.0;-5.558;0.685554;Tempe,, AZ;-111.931298;33.401395
U.O.E.N.O.;Rocko;Featuring Future &amp,; Rick Ross;3;0.658273;0.780542;186.912;0.317134;0.440779;0.41628;0.0;10.0;-4.878;0.68172;Atlanta Georgia;-84.47405;33.844371
Stuck On A Feeling;Prince Royce;Featuring Snoop Dogg;4;0.786885;0.033027;99.985;0.044561;0.011625;0.776733;1.1e-05;1.0;-5.631;0.719403;New York,, NY;-74.005973;40.714269
Ayy Ladies;Travis Porter;Featuring Tyga;4;0.779061;0.044371;96.046;0.158555;0.094198;0.90566;0.0;10.0;-3.671;0.7981;Decatur,, GA ;-84.291723;33.772554
#Beautiful;Mariah Carey;Featuring Miguel;4;0.730713;0.173944;107.015;0.038489;0.466965;0.668511;2.3e-05;4.0;-7.347;0.485324;New York,, NY;-74.005973;40.714269
This Is How We Do;Katy Perry;;4;0.645653;0.158906;96.012;0.050441;0.015982;0.681701;0.0;9.0;-5.977;0.77959;Los Angeles,, CA;-118.248405;33.973951
Ordinary Love;U2;;4;0.480623;0.172782;121.034;0.029079;0.028012;0.647511;0.0;11.0;-8.822;0.362669;Dublin,, Ireland ;-6.2488889;53.3330556
Diced Pineapples;Rick Ross;Featuring Wale &amp,; Drake;4;0.512917;0.253259;79.364;0.355071;0.347376;0.40696;0.0;6.0;-13.299;0.433108;Carol City,, FL,, US;-80.2462;25.941
Uma Thurman;Fall Out Boy;;4;0.952795;0.309972;149.937;0.06963;0.119178;0.622322;0.000203;4.0;-2.628;0.778134;Wilmette,, IL,, US;-87.7077;42.0756
Earned It (Fifty Shades Of Grey);The Weeknd;;3;0.371444;0.097062;119.95;0.030589;0.404247;0.664094;0.0;2.0;-5.959;0.449469;Toronto,, Ontario,, CA;-79.3853;43.6486
Born To Fly;Danielle Bradbery;;4;0.840226;0.455533;100.15;0.058117;0.014234;0.53479;0.000284;9.0;-4.686;0.529024;Cypress,, TX;-95.434241;29.83399
Smooth Criminal;Glee Cast;Featuring 2Cellos;4;0.80614;0.19433;135.045;0.044055;0.641536;0.756521;0.001484;0.0;-6.168;0.902238;USA;-97.0;38.0
Neon;Chris Young;;4;0.589076;0.102422;99.028;0.026508;0.391457;0.596829;0.0;0.0;-6.116;0.534432;Murfreesboro,, TN;-86.372158;35.762951
Burn It Down;Linkin Park;;4;0.484847;0.137;109.862;0.055192;0.81805;0.498513;0.0;9.0;-7.619;0.596874;Agoura Hills,, CA,, US;-118.778;34.1458
Springsteen;Eric Church;;4;0.740056;0.907562;105.666;0.032163;0.000921;0.548691;0.155593;2.0;-6.553;0.359494;Granite Falls,, NC;-81.43065;35.79652
Over You (Cassadee Pope Version);Cassadee Pope;;4;0.442477;0.092993;152.085;0.027369;0.025505;0.441979;9.9e-05;8.0;-6.038;0.179556;West Palm Beach,, FL;-80.070249;26.715844
Hello Kitty;Avril Lavigne;;4;0.795544;0.658534;127.98;0.08209;0.001808;0.755315;5.9e-05;6.0;-6.795;0.551997;Napanee,, Canada;-76.95;44.25
The One That Got Away (Jake Owen Version);Jake Owen;;4;0.777687;0.17615;119.978;0.039855;0.022947;0.576831;5.1e-05;0.0;-6.05;0.560843;Vero Beach,, FL;-80.40294;27.638005
Thinkin Bout You;Frank Ocean;;4;0.337148;0.133398;129.862;0.04699;0.418155;0.704611;0.002114;0.0;-11.403;0.218495;Los Angeles,, CA;-118.248405;33.973951
Blown Away;Carrie Underwood;;4;0.816465;0.024523;136.971;0.045008;0.094432;0.521596;0.0;9.0;-2.478;0.366375;Checotah,, OK,, US;-95.5224;35.47
Easy;Rascal Flatts;Featuring Natasha Bedingfield;3;0.580064;0.131667;120.957;0.034017;0.140979;0.347691;0.0;2.0;-5.14;0.519835;Columbus,, OH;-83.013402;40.100924
Rest Of My Life;Ludacris;Featuring Usher &amp,; David Guetta;4;0.80663;0.146863;128.044;0.047896;0.012217;0.533134;1e-06;2.0;-6.473;0.221836;atlanta,, georgia;-84.47405;33.844371
Love Me Like You Do;Ellie Goulding;;4;0.341744;0.183366;189.426;0.040381;0.17174;0.267136;0.0;5.0;-16.963;0.369632;Lyonshall,, England;-2.9799155;52.200524
Throw Sum Mo;Rae Sremmurd;Featuring Nicki Minaj &amp,; Young Thug;4;0.632385;0.10159;142.05;0.133501;0.035622;0.854138;9.3e-05;6.0;-8.027;0.553843;Tupelo,, Mississippi;-88.775002;34.221257
I Luh Ya Papi;Jennifer Lopez;Featuring French Montana;4;0.745132;0.113907;95.928;0.437579;0.431183;0.730846;0.0;8.0;-6.682;0.607937;New York,, N;-74.9384;42.1497
Glory And Gore;Lorde;;4;0.383085;0.238514;143.931;0.037953;0.266955;0.68253;0.0;1.0;-8.781;0.259416;Auckland,, New Zealand;174.766667;-36.866667
Clouds;Zach Sobiech;;4;0.659631;0.108189;96.978;0.028203;0.144513;0.656656;0.006928;2.0;-6.587;0.19089;Saint Paul,, Minnesota;-93.153453;44.847155
Alright;Kendrick Lamar;;4;0.478692;0.62302;110.083;0.289206;0.088211;0.769919;0.0;7.0;-16.52;0.717722;Compton,, CA;-118.240208;33.874815
Lamborghini Angels;Lupe Fiasco;;5;0.81904;0.476081;113.474;0.160265;0.251983;0.603048;0.0;6.0;-4.954;0.510448;Chicago,, IL,, US;-87.6324;41.8842
Paper Doll;John Mayer;;4;0.436952;0.159977;153.834;0.030427;0.476535;0.667619;0.003339;7.0;-12.693;0.701701;Bridgeport,, CT;-73.363661;41.308873
Back In Time;Pitbull;;4;0.88377;0.074569;127.073;0.047083;0.001454;0.745328;1.4e-05;0.0;-5.428;0.773505;Miami,, FL,, US;-80.2374;25.729
Days Of Gold;Jake Owen;;4;0.977383;0.099815;111.022;0.052551;0.064193;0.475956;0.020148;10.0;-6.467;0.229107;Vero Beach,, FL;-80.40294;27.638005
Beers Ago;Toby Keith;;4;0.836727;0.093737;144.018;0.029706;0.026759;0.559952;1e-06;0.0;-4.788;0.725644;Nashville,, TN;-86.778098;36.165688
Blessings;Big Sean;Featuring Drake;4;0.612144;0.132329;118.764;0.379609;0.263934;0.757986;0.0;10.0;-8.939;0.113334;Detroit,, MI;-83.060184;42.347021
Style;Taylor Swift;;4;0.785622;0.11748;95.021;0.038243;0.002564;0.598325;0.001432;2.0;-5.572;0.476619;Reading,, PA;-75.940153;40.357242
A Case Of You;James Wolpert;;4;0.228944;0.099958;187.08;0.037996;0.833066;0.374339;0.0;8.0;-9.504;0.522668;Nashville,, TN;-86.778098;36.165688
YOLO;The Lonely Island;Featuring Adam Levine &amp,; Kendrick Lamar;4;0.863279;0.138316;159.915;0.277326;0.027503;0.620295;0.0;7.0;-3.194;0.669629;Berkeley,, CA;-122.29673;37.860576
Stars (Amanda Brown Version);Amanda Brown;;4;0.710429;0.132133;140.047;0.030819;0.148667;0.386606;4e-06;0.0;-2.468;0.230193;New York,, NY,, US;-74.0071;40.7146
Lost In The Echo;Linkin Park;;4;0.980265;0.262074;119.971;0.061838;0.012987;0.545413;0.0;9.0;-3.072;0.507464;Agoura Hills,, CA,, US;-118.778;34.1458
Goodbye In Her Eyes;Zac Brown Band;;4;0.300753;0.419706;82.01;0.030082;0.233295;0.551022;0.000114;3.0;-19.239;0.454676;Dahlonega,, Georgia;-84.024387;34.541371
People Like Us;Kelly Clarkson;;4;0.906687;0.279008;127.966;0.04983;0.000835;0.566921;2.8e-05;4.0;-6.012;0.143036;Burleson,, TX;-97.264359;32.492683
Even If It Breaks Your Heart;Eli Young Band;;4;0.421259;0.091419;104.029;0.040701;0.001786;0.484973;0.002312;9.0;-12.048;0.534879;Tomball Tx;-95.585826;30.094886
L.A.LOVE (la la);Fergie;;5;0.3938;0.248732;134.863;0.099022;0.021624;0.544532;0.0;4.0;-8.302;0.294577;Hacienda Heights,, CA,, US;-117.971;33.9936
Hall Of Fame;The Script;Featuring will.i.am;4;0.495331;0.369037;84.989;0.051218;0.11144;0.514622;0.0;10.0;-16.06;0.581142;Dublin,, Ireland;-6.2488889;53.3330556
Roman Reloaded;Nicki Minaj;Featuring Lil Wayne;5;0.771422;0.375495;114.986;0.413516;0.192825;0.670008;4e-06;10.0;-6.414;0.759726;New York,, NY;-74.005973;40.714269
Wild Boy;MGK;Featuring Waka Flocka Flame;4;0.685742;0.46417;140.035;0.051828;0.033291;0.803874;0.0;10.0;-4.649;0.515258;Cleveland,, Ohio;-81.556235;41.520052
Own It;Drake;;4;0.336038;0.318254;102.967;0.110384;0.044746;0.647105;2.1e-05;8.0;-11.339;0.30005;Toronto,, Canada;-79.416667;43.666667
Just What I Am;Kid Cudi;Featuring King Chip;4;0.725912;0.299955;140.041;0.061215;0.003096;0.64209;1e-06;1.0;-11.532;0.560091;Brooklyn,, NY;-73.989319;40.694481
Crew Love;Drake;Featuring The Weekend;4;0.570595;0.171272;160.43;0.242126;0.235681;0.414567;0.0;0.0;-8.307;0.297336;Toronto,, Canada;-79.416667;43.666667
New Flame;Chris Brown;Featuring Usher &amp,; Rick Ross;4;0.675162;0.079675;141.931;0.032232;0.024912;0.711038;0.0;1.0;-4.3;0.374553;Tappahannock,, VA;-76.947547;37.916613
Play It Again;Luke Bryan;;5;0.134326;0.202273;85.485;0.949046;0.984037;0.754803;0.0;10.0;-19.507;0.729963;Nashville,, Tennessee ;-86.778098;36.165688
Just Give Me A Reason;P!nk;Featuring Nate Ruess;4;0.55538;0.132021;95.0;0.050934;0.397652;0.77914;0.000278;2.0;-7.275;0.45403;Abington,, PA;-75.114767;40.123805
I Wish You Would;DJ Khaled;Featuring Kanye West &amp,; Rick Ross;4;0.86244;0.297927;141.989;0.05388;0.063505;0.711075;0.0;5.0;-1.282;0.661764;Miami,, FL,, US;-80.2374;25.729
Dark Horse;Katy Perry;Featuring Juicy J;4;0.410419;0.666261;131.934;0.078194;0.003644;0.630577;0.0;6.0;-14.576;0.358353;Los Angeles,, CA;-118.248405;33.973951
Monster (Meek Mill Version);Meek Mill;;4;0.440341;0.250662;94.388;0.221174;0.012029;0.652095;0.0;0.0;-16.05;0.551076;Philadelphia,, PA,, US;-75.1624;39.9523
Video Games;Lana Del Rey;;4;0.291447;0.0994;122.537;0.056058;0.093518;0.512567;0.882131;2.0;-12.332;0.350354;Lake Placid,, NY,, US;-73.9827;44.2821
Red Nose;Sage The Gemini;;4;0.585513;0.259848;97.669;0.048848;0.59141;0.718688;1e-06;11.0;-4.826;0.809004;Fairfield,, CA;-122.135862;38.244889
Drunk In Love;Beyonce;Featuring Jay-Z;4;0.972272;0.12251;127.972;0.117863;0.105355;0.565952;0.789944;1.0;-4.974;0.242558;Houston,, TX;-95.309789;29.813142
Foreign;Trey Songz;;4;0.522641;0.422064;124.79;0.270716;0.030619;0.748645;0.0;5.0;-12.114;0.701788;Petersburg,, VA;-77.335396;37.235551
Rap God;Eminem;;4;0.838476;0.808741;148.138;0.313119;0.403322;0.712201;0.0;7.0;-2.679;0.610386;detroit,, MI;-83.060184;42.347021
Wildest Dreams;Taylor Swift;;4;0.663911;0.106167;140.06;0.074104;0.070896;0.552963;0.005603;8.0;-7.417;0.467332;Reading,, PA;-75.940153;40.357242
Drunk Last Night;Eli Young Band;;4;0.841723;0.096897;87.028;0.035649;0.038931;0.517408;0.0;7.0;-5.231;0.530505;Tomball Tx;-95.585826;30.094886
Who You Love;John Mayer;Featuring Katy Perry;4;0.350048;0.125858;145.974;0.038215;0.697609;0.696275;4.2e-05;9.0;-11.101;0.711668;Bridgeport,, CT;-73.363661;41.308873
Uptown Funk!;Mark Ronson;Featuring Bruno Mars;4;0.680718;0.02327;115.004;0.088845;0.009664;0.852643;5.7e-05;0.0;-5.003;0.937097;Notting Hill,, London,, England,, GB;-0.20594;51.5118
Immortals;Fall Out Boy;;4;0.87652;0.706471;108.015;0.070801;0.00172;0.61439;3e-06;2.0;-3.601;0.492349;Wilmette,, IL,, US;-87.7077;42.0756
Countdown;Beyonce;;4;0.833518;0.879255;128.022;0.194486;0.001012;0.716622;0.000149;7.0;-4.177;0.688025;Houston,, TX;-95.309789;29.813142
Roxanne;Juliet Simms;;4;0.641408;0.55346;134.225;0.04985;0.35606;0.486978;0.0;7.0;-4.127;0.444771;San Francisco,, California,, United States;-79.49533;40.219809
Diamonds;Rihanna;;4;0.675974;0.132885;91.979;0.04044;0.000943;0.552666;0.0;11.0;-6.039;0.394966;Saint Michael,, Barbados;-59.5333;13.1667
Atlas;Coldplay;;4;0.434115;0.101709;136.302;0.02992;0.671793;0.257897;0.74354;11.0;-8.502;0.079338;London,, England;-0.1278328;51.5072648
Up All Night;Jon Pardi;;4;0.636244;0.188767;163.723;0.052678;0.280086;0.520992;0.0;9.0;-8.185;0.831911;Nashville,, TN ;-86.778098;36.165688
22;Taylor Swift;;4;0.729416;0.06203;104.001;0.037002;0.002735;0.668795;0.001748;7.0;-6.544;0.68904;Reading,, PA;-75.940153;40.357242
23;Mike Will Made It;Featuring Miley Cyrus\ Wiz Khalifa &amp,; Juicy J;4;0.608931;0.128815;140.02;0.056403;0.000349;0.862984;4e-06;9.0;-5.231;0.317923;atlanta,, georgia;-84.47405;33.844371
#thatPOWER;will.i.am;Featuring Justin Bieber;4;0.574575;0.072973;127.985;0.084743;0.003262;0.781288;1e-06;6.0;-6.694;0.44489;Los Angeles,, CA;-118.248405;33.973951
Crawling Back To You;Daughtry;;4;0.846651;0.173902;150.999;0.038633;0.001477;0.419229;0.0;8.0;-3.69;0.188024;Mcleansville,, NC,, US;-79.6599;36.1063
Heartbreaker;Justin Bieber;;4;0.571204;0.149229;104.65;0.084796;0.127989;0.55001;0.0;6.0;-6.792;0.616923;Stratford,, Canada;-80.983333;43.366667
Shotgun Rider;Tim McGraw;;5;0.540521;0.146731;62.739;0.031175;0.269031;0.300257;0.0;7.0;-5.283;0.354497;Delhi,, LA;-91.49317;32.45764
Raging Fire;Phillip Phillips;;4;0.839104;0.079719;125.826;0.074675;0.007383;0.558861;0.0;7.0;-4.64;0.415129;albany,, ga;-84.176751;31.560674
Bad;Glee Cast;;4;0.833936;0.186407;114.091;0.039978;0.01895;0.733933;1e-06;8.0;-5.948;0.790162;USA;-97.0;38.0
Wobble Baby Wobble;V.I.C.;;4;0.442145;0.174241;96.91;0.253238;0.568721;0.846798;0.0;6.0;-15.425;0.497996;Hartsfield-Jackson Atlanta International Airport,, College Park,, GA,, US;-84.4501;33.6413
Beating Heart;Ellie Goulding;;4;0.67895;0.102702;127.917;0.064238;0.179028;0.553534;4e-06;5.0;-8.136;0.246608;Lyonshall,, England;-2.9799155;52.200524
Eyes Wide Open;Gotye;;4;0.826127;0.179632;138.919;0.033108;0.0556;0.606394;0.016026;5.0;-8.124;0.595269;Bruges,, Belgium;3.233333;51.216667
Baby I;Ariana Grande;;4;0.576647;0.051115;101.943;0.041658;0.022114;0.714559;0.0;1.0;-11.058;0.546903;Boca Raton,, FL;-80.10717;26.375954
Feeling Myself;Nicki Minaj;Featuring Beyonce;5;0.711;0.424982;88.599;0.332895;0.441474;0.509557;0.004032;2.0;-5.617;0.447641;New York,, NY;-74.005973;40.714269
Ready;Fabolous;Featuring Chris Brown;4;0.619402;0.114681;149.919;0.260398;0.360689;0.597841;0.0;7.0;-8.826;0.260159;Brooklyn,, NY ;-73.989319;40.694481
PYD;Justin Bieber;Featuring R. Kelly;4;0.498493;0.465895;123.217;0.037023;0.836141;0.462608;0.0;4.0;-6.818;0.428275;Stratford,, Canada;-80.983333;43.366667
King Kunta;Kendrick Lamar;;4;0.658266;0.202792;107.052;0.101387;0.005147;0.880668;0.0;11.0;-4.53;0.506202;Compton,, CA;-118.240208;33.874815
Gentleman;PSY;;4;0.950496;0.331451;124.992;0.077615;0.023699;0.5241;0.839534;0.0;-9.082;0.434671;NA;0;0
Furthest Thing;Drake;;4;0.776334;0.056452;137.063;0.18947;0.140745;0.486302;0.0;9.0;-5.28;0.255354;Toronto,, Canada;-79.416667;43.666667
Love And War;Tamar Braxton;;3;0.576259;0.345365;179.888;0.038745;0.535047;0.278218;0.0;8.0;-5.817;0.259829;Severn,, Maryland;-76.69253;39.1328
Payphone;Maroon 5;Featuring Wiz Khalifa;4;0.455241;0.543277;112.2;0.059061;0.027921;0.677938;0.0;11.0;-16.214;0.786426;Los Angeles,, CA;-118.248405;33.973951
Beg For It;Iggy Azalea;Featuring M0;4;0.751293;0.082266;92.968;0.05272;0.232503;0.805227;0.000195;10.0;-4.311;0.368664;Mullumbimby,, Australia;153.5;-28.55
Little Things;One Direction;;4;0.226673;0.15209;110.074;0.033431;0.798222;0.70231;0.0;7.0;-11.664;0.513697;London,, England,, GB;-0.12714;51.5063
Ready Set Roll;Chase Rice;;4;0.81005;0.667676;156.027;0.057251;0.009143;0.558827;0.0;0.0;-4.402;0.801282;Asheville,, North Carolina;-82.567281;35.602711
Fairly Local;Twenty One Pilots;;4;0.735469;0.074553;114.993;0.056533;0.04497;0.716112;6.3e-05;6.0;-5.954;0.48756;Columbus,, Ohio;-81.949111;41.3056
Wasting All These Tears;Cassadee Pope;;4;0.786399;0.193054;155.831;0.039347;0.112676;0.456447;1.4e-05;5.0;-4.186;0.267573;West Palm Beach,, FL;-80.070249;26.715844
Holy Grail;Jay Z;Featuring Justin Timberlake;4;0.382189;0.082861;144.945;0.158719;0.204546;0.655806;2e-06;2.0;-16.011;0.148007;Brooklyn,, NY;-73.989319;40.694481
Steal My Girl;One Direction;;4;0.770543;0.275965;77.225;0.041026;0.003975;0.45418;0.0;10.0;-5.943;0.51963;London,, England,, GB;-0.12714;51.5063
Beneath Your Beautiful;Labrinth;Featuring Emeli Sande;4;0.415435;0.108332;168.122;0.026213;0.0034;0.485367;0.852629;2.0;-8.444;0.125873;Hackney,, London,, England,, GB;-0.05531;51.5451
Work (Iggy Azalea Version);Iggy Azalea;;4;0.510935;0.789821;140.153;0.580995;0.29139;0.522278;0.0;7.0;-14.837;0.52922;Mullumbimby,, Australia;153.5;-28.55
Talk That Talk;Rihanna;Featuring Jay-Z;4;0.663674;0.331545;84.003;0.0513;0.038406;0.695962;2.1e-05;6.0;-4.095;0.468906;Saint Michael,, Barbados;-59.5333;13.1667
A Man Who Was Gonna Die Young;Eric Church;;4;0.09903;0.106751;143.817;0.045985;0.951573;0.496943;0.0;11.0;-16.676;0.356029;Granite Falls,, NC;-81.43065;35.79652
Maps;Maroon 5;;4;0.704337;0.083991;120.019;0.029685;0.018983;0.736411;0.0;1.0;-5.896;0.846494;Los Angeles,, CA;-118.248405;33.973951
Fine China;Chris Brown;;4;0.428619;0.094074;103.964;0.137624;0.138823;0.40531;0.0;11.0;-14.893;0.476948;Tappahannock,, VA;-76.947547;37.916613
I Drive Your Truck;Lee Brice;;4;0.647202;0.122204;141.994;0.034747;0.09281;0.516941;0.001371;11.0;-6.268;0.111338;Sumter,, SC;-80.354238;33.913678
